{
  "fetched_at": "2026-06-29T15:32:31.386Z",
  "bbox": "35.55,-87.50,36.65,-86.05",
  "source": "OpenStreetMap via Overpass API",
  "counts": {
    "bank": 101,
    "fuel": 351,
    "pharmacy": 50,
    "grocery": 266,
    "hospital": 40,
    "clinic": 60,
    "childcare": 27,
    "restaurant": 741,
    "fast_food": 569,
    "cafe": 162,
    "convenience": 176,
    "auto": 102,
    "dentist": 64
  },
  "pois": [
    {
      "id": "node/305554942",
      "lat": 36.38829,
      "lng": -86.4489767,
      "category": "bank",
      "name": "Citizens Bank",
      "brand": null,
      "addr": null
    },
    {
      "id": "node/305556950",
      "lat": 36.3849933,
      "lng": -86.4453496,
      "category": "fuel",
      "name": "Mapco",
      "brand": "Mapco",
      "addr": null
    },
    {
      "id": "node/305557021",
      "lat": 36.3831691,
      "lng": -86.4442681,
      "category": "fuel",
      "name": null,
      "brand": null,
      "addr": null
    },
    {
      "id": "node/305558019",
      "lat": 36.3801425,
      "lng": -86.4429206,
      "category": "fuel",
      "name": null,
      "brand": null,
      "addr": null
    },
    {
      "id": "node/305558195",
      "lat": 36.3800942,
      "lng": -86.4435042,
      "category": "fuel",
      "name": null,
      "brand": null,
      "addr": null
    },
    {
      "id": "node/311090945",
      "lat": 35.8927954,
      "lng": -86.8810549,
      "category": "pharmacy",
      "name": "CVS Pharmacy",
      "brand": "CVS Pharmacy",
      "addr": "3064 Columbia Ave Franklin"
    },
    {
      "id": "node/311091014",
      "lat": 35.8937063,
      "lng": -86.8808919,
      "category": "grocery",
      "name": "Kroger",
      "brand": "Kroger",
      "addr": "3054 Columbia Avenue Franklin"
    },
    {
      "id": "node/311091666",
      "lat": 35.8940817,
      "lng": -86.8773471,
      "category": "fuel",
      "name": "Kroger",
      "brand": "Kroger",
      "addr": null
    },
    {
      "id": "node/356868079",
      "lat": 36.5573089,
      "lng": -86.5113418,
      "category": "hospital",
      "name": "TriStar Portland ER",
      "brand": null,
      "addr": "105 Red Bud Drive Portland"
    },
    {
      "id": "node/356868218",
      "lat": 36.406694,
      "lng": -86.4439118,
      "category": "clinic",
      "name": "Sumner County Health Department",
      "brand": null,
      "addr": "1005 Union School Gallatin"
    },
    {
      "id": "node/356876036",
      "lat": 35.9139533,
      "lng": -86.3794364,
      "category": "hospital",
      "name": "Alvin C. York Campus",
      "brand": null,
      "addr": "3400 Lebanon Pike Murfreesboro"
    },
    {
      "id": "node/356879279",
      "lat": 36.1252714,
      "lng": -86.7860976,
      "category": "childcare",
      "name": null,
      "brand": null,
      "addr": null
    },
    {
      "id": "node/356879642",
      "lat": 36.2547756,
      "lng": -86.6824968,
      "category": "hospital",
      "name": "TriStar Skyline Madison Campus",
      "brand": null,
      "addr": "500 Hospital Drive Madison"
    },
    {
      "id": "node/356898097",
      "lat": 36.1393682,
      "lng": -86.8022762,
      "category": "hospital",
      "name": "Monroe Carell Jr. Children's Hospital at Vanderbilt",
      "brand": null,
      "addr": "2200 Children's Way Nashville"
    },
    {
      "id": "node/356900405",
      "lat": 36.1379154,
      "lng": -86.8623388,
      "category": "childcare",
      "name": "Saint Thomas Family Center",
      "brand": null,
      "addr": "5701 Knob Road Nashville"
    },
    {
      "id": "node/356901157",
      "lat": 36.1667039,
      "lng": -86.8080112,
      "category": "hospital",
      "name": "Lloyd C. Elam Mental Health Center",
      "brand": null,
      "addr": null
    },
    {
      "id": "node/356901159",
      "lat": 36.2791823,
      "lng": -86.7085195,
      "category": "clinic",
      "name": "Madison Minor Medical Center",
      "brand": null,
      "addr": null
    },
    {
      "id": "node/356901163",
      "lat": 36.1668039,
      "lng": -86.8065112,
      "category": "clinic",
      "name": "Meharry Clinics",
      "brand": null,
      "addr": null
    },
    {
      "id": "node/356901174",
      "lat": 36.1526984,
      "lng": -86.8104941,
      "category": "hospital",
      "name": "TriStar Centennial Parthenon Pavilion",
      "brand": null,
      "addr": "2401 Parmon Place Nashville"
    },
    {
      "id": "node/356901177",
      "lat": 36.1525321,
      "lng": -86.8011062,
      "category": "hospital",
      "name": "Select Specialty Hospital - Nashville",
      "brand": "Select Specialty Hospital",
      "addr": "2000 Hayes Street Nashville"
    },
    {
      "id": "node/368157273",
      "lat": 36.1734208,
      "lng": -86.6025217,
      "category": "clinic",
      "name": "Summit Medical Park",
      "brand": null,
      "addr": null
    },
    {
      "id": "node/368157302",
      "lat": 36.1126227,
      "lng": -86.8112201,
      "category": "childcare",
      "name": "Woodmont Christian Day Care Center",
      "brand": null,
      "addr": null
    },
    {
      "id": "node/368157303",
      "lat": 36.1315031,
      "lng": -86.8345625,
      "category": "childcare",
      "name": "Westminster Toddlers and Twos Day Care Center",
      "brand": null,
      "addr": null
    },
    {
      "id": "node/368157304",
      "lat": 36.1618124,
      "lng": -86.7796314,
      "category": "childcare",
      "name": "McKendree United Methodist Church Day Care Center",
      "brand": null,
      "addr": null
    },
    {
      "id": "node/368157306",
      "lat": 36.2208496,
      "lng": -86.7263668,
      "category": "childcare",
      "name": "Jackson Park Church of Christ Day Care Center",
      "brand": null,
      "addr": null
    },
    {
      "id": "node/368157307",
      "lat": 36.1738427,
      "lng": -86.7626431,
      "category": "childcare",
      "name": "First Baptist Church of East Nashville Day Care Center",
      "brand": null,
      "addr": null
    },
    {
      "id": "node/368157308",
      "lat": 36.1735595,
      "lng": -86.7930441,
      "category": "childcare",
      "name": "Fifteenth Avenue Baptist Church Day Care Center",
      "brand": null,
      "addr": null
    },
    {
      "id": "node/368157309",
      "lat": 36.2113029,
      "lng": -86.8403147,
      "category": "childcare",
      "name": "World of Wonder Child Care Center",
      "brand": null,
      "addr": null
    },
    {
      "id": "node/472458693",
      "lat": 36.1623537,
      "lng": -86.7749578,
      "category": "restaurant",
      "name": "Hard Rock Cafe",
      "brand": "Hard Rock Cafe",
      "addr": "100 Broadway"
    },
    {
      "id": "node/476216741",
      "lat": 35.8919617,
      "lng": -86.8778183,
      "category": "restaurant",
      "name": "M.L. Rose",
      "brand": "Chili's",
      "addr": "3084 Columbia Ave Franklin"
    },
    {
      "id": "node/476221357",
      "lat": 35.8940052,
      "lng": -86.877965,
      "category": "fast_food",
      "name": "Panera Bread",
      "brand": "Panera Bread",
      "addr": "3046 Columbia Avenue Franklin"
    },
    {
      "id": "node/476227928",
      "lat": 35.894033,
      "lng": -86.8782627,
      "category": "restaurant",
      "name": "Pizza Hut",
      "brand": "Pizza Hut",
      "addr": "3046 Columbia Avenue Franklin"
    },
    {
      "id": "node/476233674",
      "lat": 35.8940469,
      "lng": -86.8784859,
      "category": "restaurant",
      "name": "Pancho's Place",
      "brand": null,
      "addr": "3046 Columbia Ave"
    },
    {
      "id": "node/495863310",
      "lat": 36.3859216,
      "lng": -87.0145853,
      "category": "cafe",
      "name": "Cafe Amendo",
      "brand": null,
      "addr": null
    },
    {
      "id": "node/495864150",
      "lat": 36.3971836,
      "lng": -87.030022,
      "category": "fast_food",
      "name": "KFC/Taco Bell",
      "brand": null,
      "addr": "111 Ren Mar Drive Pleasant View"
    },
    {
      "id": "node/495865075",
      "lat": 36.3973877,
      "lng": -87.0309757,
      "category": "grocery",
      "name": "H.G. Hill's Supermarket",
      "brand": null,
      "addr": null
    },
    {
      "id": "node/495865994",
      "lat": 36.4003572,
      "lng": -87.0303331,
      "category": "convenience",
      "name": "Sudden Service",
      "brand": null,
      "addr": null
    },
    {
      "id": "node/495869950",
      "lat": 36.3952576,
      "lng": -87.0322163,
      "category": "restaurant",
      "name": "Pizza Done Right",
      "brand": null,
      "addr": null
    },
    {
      "id": "node/495870429",
      "lat": 36.3878313,
      "lng": -87.0145525,
      "category": "fast_food",
      "name": "Chris' Pizza Village",
      "brand": null,
      "addr": "244 Village Square Pleasant View"
    },
    {
      "id": "node/495872088",
      "lat": 36.3953351,
      "lng": -87.0348931,
      "category": "restaurant",
      "name": null,
      "brand": null,
      "addr": null
    },
    {
      "id": "node/500918759",
      "lat": 35.946486,
      "lng": -86.8243405,
      "category": "fuel",
      "name": "Exxon",
      "brand": "Exxon",
      "addr": "449 Cool Springs Boulevard"
    },
    {
      "id": "node/500918760",
      "lat": 35.9469016,
      "lng": -86.8233934,
      "category": "fuel",
      "name": "Shell",
      "brand": "Shell",
      "addr": "501 Cool Springs Boulevard"
    },
    {
      "id": "node/500918761",
      "lat": 35.9452949,
      "lng": -86.8254032,
      "category": "restaurant",
      "name": "Bubba Gandy's Seafood Market",
      "brand": null,
      "addr": null
    },
    {
      "id": "node/500918762",
      "lat": 35.9452739,
      "lng": -86.8251114,
      "category": "fast_food",
      "name": "Chipotle",
      "brand": "Chipotle",
      "addr": "430 Cool Springs Boulevard Franklin"
    },
    {
      "id": "node/500918764",
      "lat": 35.9456562,
      "lng": -86.828373,
      "category": "fast_food",
      "name": "Moe's Southwest Grill",
      "brand": "Moe's Southwest Grill",
      "addr": "401 Cool Springs Boulevard Franklin"
    },
    {
      "id": "node/500918765",
      "lat": 35.9454547,
      "lng": -86.8286047,
      "category": "restaurant",
      "name": "McAlister's Deli",
      "brand": "McAlister's Deli",
      "addr": null
    },
    {
      "id": "node/500918766",
      "lat": 35.945962,
      "lng": -86.8279181,
      "category": "restaurant",
      "name": "Burger Up",
      "brand": null,
      "addr": null
    },
    {
      "id": "node/500922650",
      "lat": 35.9476574,
      "lng": -86.8216783,
      "category": "cafe",
      "name": "Starbucks",
      "brand": "Starbucks",
      "addr": "555 Cool Springs Road Franklin"
    },
    {
      "id": "node/501820963",
      "lat": 35.9435335,
      "lng": -86.8213055,
      "category": "restaurant",
      "name": "Jason's Deli",
      "brand": "Jason's Deli",
      "addr": null
    },
    {
      "id": "node/501820964",
      "lat": 35.9466326,
      "lng": -86.8208248,
      "category": "pharmacy",
      "name": "Walgreens",
      "brand": "Walgreens",
      "addr": null
    },
    {
      "id": "node/501826430",
      "lat": 35.9484461,
      "lng": -86.8192541,
      "category": "fast_food",
      "name": "Wendy's",
      "brand": "Wendy's",
      "addr": "2050 Mallory Lane Franklin"
    },
    {
      "id": "node/501826433",
      "lat": 35.9508016,
      "lng": -86.816765,
      "category": "grocery",
      "name": "Kroger",
      "brand": "Kroger",
      "addr": "2020 Mallory Lane Franklin"
    },
    {
      "id": "node/501845430",
      "lat": 35.9479042,
      "lng": -86.8211596,
      "category": "restaurant",
      "name": "Carrabba's Italian Grill",
      "brand": "Carrabba's Italian Grill",
      "addr": null
    },
    {
      "id": "node/502864813",
      "lat": 35.9461029,
      "lng": -86.8176706,
      "category": "restaurant",
      "name": "Golden Corral",
      "brand": "Golden Corral",
      "addr": null
    },
    {
      "id": "node/502864814",
      "lat": 35.9469159,
      "lng": -86.8180847,
      "category": "restaurant",
      "name": "Bonefish Grill",
      "brand": "Bonefish Grill",
      "addr": "3010 Mallory Lane Franklin"
    },
    {
      "id": "node/502865758",
      "lat": 35.9487433,
      "lng": -86.8161106,
      "category": "restaurant",
      "name": "Las Palmas",
      "brand": null,
      "addr": null
    },
    {
      "id": "node/504738670",
      "lat": 36.0807688,
      "lng": -86.7226597,
      "category": "fast_food",
      "name": "Fazoli's",
      "brand": "Fazoli's",
      "addr": null
    },
    {
      "id": "node/506398562",
      "lat": 35.8926987,
      "lng": -86.8810713,
      "category": "cafe",
      "name": "Starbucks",
      "brand": "Starbucks",
      "addr": "3064 Columbia Avenue Franklin"
    },
    {
      "id": "node/522807810",
      "lat": 35.8994424,
      "lng": -86.8757764,
      "category": "fast_food",
      "name": "Lenny's Sub Shop",
      "brand": null,
      "addr": "102 Lumber Dr Franklin"
    },
    {
      "id": "node/522807812",
      "lat": 35.8993958,
      "lng": -86.8755526,
      "category": "restaurant",
      "name": "Koi Sushi and Thai Restaurant",
      "brand": null,
      "addr": "102 Lumber Dr Franklin"
    },
    {
      "id": "node/555150202",
      "lat": 35.7995012,
      "lng": -86.3990583,
      "category": "fuel",
      "name": "Kangaroo",
      "brand": "Kangaroo Express",
      "addr": null
    },
    {
      "id": "node/561182516",
      "lat": 36.2102066,
      "lng": -86.7317836,
      "category": "grocery",
      "name": "Kroger",
      "brand": null,
      "addr": null
    },
    {
      "id": "node/587895072",
      "lat": 36.0711702,
      "lng": -86.68495,
      "category": "restaurant",
      "name": "King Market",
      "brand": null,
      "addr": null
    },
    {
      "id": "node/652224707",
      "lat": 35.8410562,
      "lng": -86.3606498,
      "category": "restaurant",
      "name": "Sir Pizza",
      "brand": null,
      "addr": null
    },
    {
      "id": "node/652225833",
      "lat": 35.840785,
      "lng": -86.3596713,
      "category": "restaurant",
      "name": "Slick Pig BBQ",
      "brand": null,
      "addr": null
    },
    {
      "id": "node/655898932",
      "lat": 35.8697437,
      "lng": -86.4146794,
      "category": "restaurant",
      "name": "La Siesta Mexican Restaurant",
      "brand": null,
      "addr": null
    },
    {
      "id": "node/656843198",
      "lat": 35.8561423,
      "lng": -86.4308915,
      "category": "restaurant",
      "name": "Bonefish Grill",
      "brand": "Bonefish Grill",
      "addr": null
    },
    {
      "id": "node/657168729",
      "lat": 35.8463285,
      "lng": -86.4042837,
      "category": "restaurant",
      "name": "Maya Grill Mexican Food",
      "brand": null,
      "addr": "805 Old Fort Parkway Murfreesboro"
    },
    {
      "id": "node/657172906",
      "lat": 35.8461979,
      "lng": -86.4050132,
      "category": "fast_food",
      "name": "Fazoli's",
      "brand": "Fazoli's",
      "addr": "835 Old Fort Parkway Murfreesboro"
    },
    {
      "id": "node/657173995",
      "lat": 35.8461501,
      "lng": -86.4056677,
      "category": "fast_food",
      "name": "Zaxby's",
      "brand": "Zaxby's",
      "addr": "905 Old Fort Parkway Murfreesboro"
    },
    {
      "id": "node/657371716",
      "lat": 35.8188856,
      "lng": -86.3951749,
      "category": "fast_food",
      "name": "Wendy's",
      "brand": "Wendy's",
      "addr": "1905 South Church Street Murfreesboro"
    },
    {
      "id": "node/657381732",
      "lat": 35.8187899,
      "lng": -86.3961995,
      "category": "restaurant",
      "name": "Shoney's",
      "brand": "Shoney's",
      "addr": null
    },
    {
      "id": "node/660520022",
      "lat": 36.0835679,
      "lng": -86.6887333,
      "category": "restaurant",
      "name": "Las Palmas",
      "brand": null,
      "addr": null
    },
    {
      "id": "node/664915444",
      "lat": 36.1127897,
      "lng": -86.7679335,
      "category": "restaurant",
      "name": "Thai Kitchen",
      "brand": null,
      "addr": null
    },
    {
      "id": "node/673856506",
      "lat": 36.1126597,
      "lng": -86.7678395,
      "category": "fast_food",
      "name": "Jersey Mike's Subs",
      "brand": "Jersey Mike's Subs",
      "addr": null
    },
    {
      "id": "node/731414357",
      "lat": 35.7243069,
      "lng": -86.3193467,
      "category": "convenience",
      "name": "Loves",
      "brand": null,
      "addr": null
    },
    {
      "id": "node/753062814",
      "lat": 36.0681667,
      "lng": -86.6814613,
      "category": "grocery",
      "name": "Food Lion",
      "brand": "Food Lion",
      "addr": null
    },
    {
      "id": "node/761667233",
      "lat": 36.0395099,
      "lng": -86.7423718,
      "category": "fast_food",
      "name": "Roma Pizza and Subs",
      "brand": null,
      "addr": null
    },
    {
      "id": "node/761667240",
      "lat": 36.0418089,
      "lng": -86.745923,
      "category": "fast_food",
      "name": "Jersey Mike's Subs",
      "brand": "Jersey Mike's Subs",
      "addr": null
    },
    {
      "id": "node/761667241",
      "lat": 36.0398396,
      "lng": -86.7466204,
      "category": "restaurant",
      "name": "Snappy Tomato Pizza",
      "brand": "Snappy Tomato Pizza",
      "addr": null
    },
    {
      "id": "node/761667243",
      "lat": 36.0410368,
      "lng": -86.7423825,
      "category": "restaurant",
      "name": "Las Palmas Mexican Restaurant",
      "brand": null,
      "addr": null
    },
    {
      "id": "node/761667247",
      "lat": 36.0410541,
      "lng": -86.7425541,
      "category": "fast_food",
      "name": "Subway",
      "brand": "Subway",
      "addr": "15564 Old Hickory Boulevard Nashville"
    },
    {
      "id": "node/761667271",
      "lat": 36.042185,
      "lng": -86.745587,
      "category": "grocery",
      "name": "Walmart Neighborhood Market",
      "brand": "Walmart",
      "addr": "5531 Edmondson Pike Nashville"
    },
    {
      "id": "node/761915479",
      "lat": 36.0810183,
      "lng": -86.7280026,
      "category": "fast_food",
      "name": "Subway",
      "brand": "Subway",
      "addr": "4047 Nolensville Pike Nashville"
    },
    {
      "id": "node/761915765",
      "lat": 36.0843009,
      "lng": -86.7291209,
      "category": "fast_food",
      "name": "China Moon",
      "brand": null,
      "addr": "3979 Nolensville Pike"
    },
    {
      "id": "node/761915862",
      "lat": 36.0849382,
      "lng": -86.7272166,
      "category": "fast_food",
      "name": "Domino's",
      "brand": "Domino's",
      "addr": null
    },
    {
      "id": "node/775862787",
      "lat": 36.0700349,
      "lng": -86.6933725,
      "category": "convenience",
      "name": "Kangaroo",
      "brand": null,
      "addr": null
    },
    {
      "id": "node/823638769",
      "lat": 36.08801,
      "lng": -86.74259,
      "category": "cafe",
      "name": "Zoofari Cafe",
      "brand": null,
      "addr": null
    },
    {
      "id": "node/871972175",
      "lat": 36.0807649,
      "lng": -86.722188,
      "category": "fast_food",
      "name": "Sonic",
      "brand": "Sonic",
      "addr": "398 Harding Place Nashville"
    },
    {
      "id": "node/984655670",
      "lat": 36.1098459,
      "lng": -86.7264597,
      "category": "restaurant",
      "name": "No. 1 Chinese",
      "brand": null,
      "addr": null
    },
    {
      "id": "node/1029991438",
      "lat": 35.7973226,
      "lng": -86.9055891,
      "category": "fuel",
      "name": "BP",
      "brand": "BP",
      "addr": null
    },
    {
      "id": "node/1133352339",
      "lat": 35.9604466,
      "lng": -86.8165438,
      "category": "restaurant",
      "name": "Cracker Barrel",
      "brand": "Cracker Barrel",
      "addr": null
    },
    {
      "id": "node/1133352349",
      "lat": 35.9611473,
      "lng": -86.8160264,
      "category": "fast_food",
      "name": "Krispy Kreme",
      "brand": "Krispy Kreme",
      "addr": null
    },
    {
      "id": "node/1133359950",
      "lat": 35.9450698,
      "lng": -86.8202935,
      "category": "restaurant",
      "name": "Chueys Mexican",
      "brand": null,
      "addr": null
    },
    {
      "id": "node/1133359953",
      "lat": 35.9448005,
      "lng": -86.8216132,
      "category": "fast_food",
      "name": "Genghis Grill",
      "brand": "Genghis Grill",
      "addr": null
    },
    {
      "id": "node/1133359958",
      "lat": 35.9457516,
      "lng": -86.82044,
      "category": "fast_food",
      "name": "Papa John's",
      "brand": "Papa John's",
      "addr": "3021 Mallory Lane Franklin"
    },
    {
      "id": "node/1133361903",
      "lat": 35.9461077,
      "lng": -86.8276535,
      "category": "restaurant",
      "name": "Pie Five Pizza",
      "brand": null,
      "addr": null
    },
    {
      "id": "node/1133361905",
      "lat": 35.9441491,
      "lng": -86.8280183,
      "category": "restaurant",
      "name": "PortaVia",
      "brand": null,
      "addr": null
    },
    {
      "id": "node/1133364558",
      "lat": 35.9510975,
      "lng": -86.8171827,
      "category": "fast_food",
      "name": "Panera Bread",
      "brand": "Panera Bread",
      "addr": "2000 Mallory Lane Franklin"
    },
    {
      "id": "node/1133364560",
      "lat": 35.9561826,
      "lng": -86.8177323,
      "category": "fast_food",
      "name": "Burger King",
      "brand": "Burger King",
      "addr": "1911 Mallory Lane Franklin"
    },
    {
      "id": "node/1133368903",
      "lat": 35.9539766,
      "lng": -86.8190251,
      "category": "restaurant",
      "name": "Pizza Hut",
      "brand": "Pizza Hut",
      "addr": null
    },
    {
      "id": "node/1133370808",
      "lat": 35.9525306,
      "lng": -86.8146394,
      "category": "restaurant",
      "name": "Jonathans Sports Bar & Grill",
      "brand": null,
      "addr": null
    },
    {
      "id": "node/1133371781",
      "lat": 35.9489401,
      "lng": -86.8181442,
      "category": "fast_food",
      "name": "Jersey Mike's Subs",
      "brand": "Jersey Mike's Subs",
      "addr": null
    },
    {
      "id": "node/1133373542",
      "lat": 35.9329564,
      "lng": -86.8246417,
      "category": "fast_food",
      "name": "Little Caesars",
      "brand": "Little Caesars",
      "addr": null
    },
    {
      "id": "node/1133373543",
      "lat": 35.932496,
      "lng": -86.8247567,
      "category": "restaurant",
      "name": "Blue Coast Burritos",
      "brand": null,
      "addr": null
    },
    {
      "id": "node/1133373544",
      "lat": 35.932748,
      "lng": -86.8246899,
      "category": "fast_food",
      "name": "Cheeseburger Charlies",
      "brand": null,
      "addr": null
    },
    {
      "id": "node/1133373545",
      "lat": 35.9455909,
      "lng": -86.8207715,
      "category": "fast_food",
      "name": "Five Guys",
      "brand": "Five Guys",
      "addr": "3021 Mallory Lane Franklin"
    },
    {
      "id": "node/1240405582",
      "lat": 35.7098689,
      "lng": -86.3993439,
      "category": "restaurant",
      "name": "Millers Grocery",
      "brand": null,
      "addr": "7011 Main Street"
    },
    {
      "id": "node/1305796241",
      "lat": 36.2047401,
      "lng": -86.7241076,
      "category": "cafe",
      "name": "Dose East",
      "brand": null,
      "addr": "1400 McGavock Pike Nashville"
    },
    {
      "id": "node/1305797946",
      "lat": 36.2047816,
      "lng": -86.7239602,
      "category": "restaurant",
      "name": "Bite a Bit Thai & Sushi",
      "brand": null,
      "addr": "1402 McGavock Pike"
    },
    {
      "id": "node/1305800739",
      "lat": 36.2047351,
      "lng": -86.7237202,
      "category": "restaurant",
      "name": "Castrillo's Pizza",
      "brand": null,
      "addr": "1400 McGavock Pike"
    },
    {
      "id": "node/1314684901",
      "lat": 36.3967577,
      "lng": -87.0257288,
      "category": "auto",
      "name": "Pleasant View Auto Service",
      "brand": null,
      "addr": null
    },
    {
      "id": "node/1314685151",
      "lat": 36.3974831,
      "lng": -87.0313614,
      "category": "bank",
      "name": "Community Bank",
      "brand": "Community Bank",
      "addr": null
    },
    {
      "id": "node/1314685158",
      "lat": 36.3978976,
      "lng": -87.0317691,
      "category": "bank",
      "name": "U.S. Bank",
      "brand": "U.S. Bank",
      "addr": null
    },
    {
      "id": "node/1314685159",
      "lat": 36.3968181,
      "lng": -87.0325416,
      "category": "bank",
      "name": "Hertiage Bank",
      "brand": null,
      "addr": null
    },
    {
      "id": "node/1314685228",
      "lat": 36.4002595,
      "lng": -87.0304548,
      "category": "fast_food",
      "name": "Wendy's",
      "brand": "Wendy's",
      "addr": "2601 Highway 49 East Pleasant View"
    },
    {
      "id": "node/1314685272",
      "lat": 36.4005142,
      "lng": -87.0290816,
      "category": "convenience",
      "name": "Sudden Service",
      "brand": null,
      "addr": null
    },
    {
      "id": "node/1314685274",
      "lat": 36.4004149,
      "lng": -87.0301813,
      "category": "fast_food",
      "name": "Dunkin' Donuts",
      "brand": "Dunkin'",
      "addr": "2601 Highway 49 East Pleasant View"
    },
    {
      "id": "node/1562584072",
      "lat": 36.1391578,
      "lng": -86.8197786,
      "category": "fuel",
      "name": "Exxon",
      "brand": "Exxon",
      "addr": null
    },
    {
      "id": "node/1562655187",
      "lat": 35.7021521,
      "lng": -86.8988072,
      "category": "fuel",
      "name": "Wall's Grocery",
      "brand": null,
      "addr": null
    },
    {
      "id": "node/1564699440",
      "lat": 36.1845051,
      "lng": -86.7542282,
      "category": "restaurant",
      "name": "Lyra",
      "brand": null,
      "addr": "935 West Eastland Avenue Nashville"
    },
    {
      "id": "node/1583994022",
      "lat": 36.2041725,
      "lng": -86.7252458,
      "category": "restaurant",
      "name": "Curry Boys BBQ",
      "brand": null,
      "addr": "1304 McGavock Pike"
    },
    {
      "id": "node/1583996852",
      "lat": 36.2045325,
      "lng": -86.7253782,
      "category": "restaurant",
      "name": "Bailey & Cato Family Restaurant",
      "brand": null,
      "addr": "1307 McGavock Pike"
    },
    {
      "id": "node/1584001434",
      "lat": 36.204786,
      "lng": -86.7235458,
      "category": "pharmacy",
      "name": "Riverside Village Pharmacy",
      "brand": null,
      "addr": "1404 Mcgavock Pike"
    },
    {
      "id": "node/1585070210",
      "lat": 36.0416968,
      "lng": -86.7457261,
      "category": "cafe",
      "name": "Starbucks",
      "brand": "Starbucks",
      "addr": "5533 Edmonson Pike Nipper's Corner"
    },
    {
      "id": "node/1585070217",
      "lat": 36.0404487,
      "lng": -86.7426491,
      "category": "fast_food",
      "name": "Smoothie King",
      "brand": "Smoothie King",
      "addr": null
    },
    {
      "id": "node/1666287488",
      "lat": 36.1706942,
      "lng": -86.6787276,
      "category": "grocery",
      "name": "Kroger",
      "brand": "Kroger",
      "addr": "143 McGavock Pike Nashville"
    },
    {
      "id": "node/1666303615",
      "lat": 36.1711197,
      "lng": -86.6799404,
      "category": "fuel",
      "name": "Kroger",
      "brand": "Kroger",
      "addr": null
    },
    {
      "id": "node/1666315966",
      "lat": 36.2160402,
      "lng": -86.6887144,
      "category": "restaurant",
      "name": "Waffle House",
      "brand": "Waffle House",
      "addr": "2727 McGavock Pk"
    },
    {
      "id": "node/1736624432",
      "lat": 36.1867894,
      "lng": -86.7256523,
      "category": "convenience",
      "name": "VIP Market",
      "brand": null,
      "addr": null
    },
    {
      "id": "node/1744686842",
      "lat": 36.0731105,
      "lng": -86.9194867,
      "category": "grocery",
      "name": "Kroger",
      "brand": "Kroger",
      "addr": "7087 Memphis-Bristol Highway Nashville"
    },
    {
      "id": "node/1775088343",
      "lat": 36.0004444,
      "lng": -86.692766,
      "category": "restaurant",
      "name": null,
      "brand": null,
      "addr": null
    },
    {
      "id": "node/1775088346",
      "lat": 36.0004531,
      "lng": -86.6924388,
      "category": "restaurant",
      "name": "Las Palmas",
      "brand": null,
      "addr": null
    },
    {
      "id": "node/1775088352",
      "lat": 36.0004835,
      "lng": -86.692589,
      "category": "restaurant",
      "name": "Fat Mo's",
      "brand": null,
      "addr": null
    },
    {
      "id": "node/1775088379",
      "lat": 36.0001536,
      "lng": -86.693501,
      "category": "bank",
      "name": "First Tennessee Bank",
      "brand": null,
      "addr": null
    },
    {
      "id": "node/1775088381",
      "lat": 36.0005963,
      "lng": -86.6917951,
      "category": "fast_food",
      "name": "Papa Murphy's",
      "brand": "Papa Murphy's",
      "addr": "6688 Nolensville Pike Brentwood"
    },
    {
      "id": "node/1775088383",
      "lat": 36.0004922,
      "lng": -86.6922189,
      "category": "fast_food",
      "name": "Subway",
      "brand": "Subway",
      "addr": "6688 Nolensville Pike Road Brentwood"
    },
    {
      "id": "node/1775119799",
      "lat": 35.9990643,
      "lng": -86.692294,
      "category": "cafe",
      "name": "Starbucks",
      "brand": "Starbucks",
      "addr": "6680 Nolensville Road Brentwood"
    },
    {
      "id": "node/1775119821",
      "lat": 35.9974108,
      "lng": -86.6912425,
      "category": "restaurant",
      "name": null,
      "brand": null,
      "addr": null
    },
    {
      "id": "node/1775119858",
      "lat": 35.9967945,
      "lng": -86.6905505,
      "category": "restaurant",
      "name": null,
      "brand": null,
      "addr": null
    },
    {
      "id": "node/1775119900",
      "lat": 35.9994343,
      "lng": -86.6927171,
      "category": "bank",
      "name": "Fifth Third Bank",
      "brand": "Fifth Third Bank",
      "addr": null
    },
    {
      "id": "node/1775119947",
      "lat": 35.997094,
      "lng": -86.6917307,
      "category": "grocery",
      "name": "Publix",
      "brand": "Publix",
      "addr": "10638 Concord Road Brentwood"
    },
    {
      "id": "node/1775119949",
      "lat": 35.9969247,
      "lng": -86.690572,
      "category": "restaurant",
      "name": "Jet's",
      "brand": null,
      "addr": null
    },
    {
      "id": "node/1786329544",
      "lat": 36.3214097,
      "lng": -86.6230145,
      "category": "fast_food",
      "name": "McDonald's",
      "brand": "McDonald's",
      "addr": "305 New Shackle Island Road Hendersonville"
    },
    {
      "id": "node/1795234395",
      "lat": 36.0776064,
      "lng": -87.374659,
      "category": "fast_food",
      "name": "Popeyes",
      "brand": "Popeyes",
      "addr": "211 Henslee Drive Dickson"
    },
    {
      "id": "node/1799834661",
      "lat": 36.0533492,
      "lng": -86.6149191,
      "category": "grocery",
      "name": "Publix",
      "brand": "Publix",
      "addr": "3532 Murfreesboro Pike Antioch"
    },
    {
      "id": "node/1802886321",
      "lat": 36.1744498,
      "lng": -86.749747,
      "category": "grocery",
      "name": "Bill Martin's",
      "brand": null,
      "addr": null
    },
    {
      "id": "node/1887592185",
      "lat": 36.3193076,
      "lng": -86.6245628,
      "category": "fast_food",
      "name": "Sonic",
      "brand": "Sonic",
      "addr": "279 New Shackle Island Road Hendersonville"
    },
    {
      "id": "node/1887592212",
      "lat": 36.3187543,
      "lng": -86.6249652,
      "category": "restaurant",
      "name": "Yokohama",
      "brand": null,
      "addr": null
    },
    {
      "id": "node/1945354462",
      "lat": 36.150523,
      "lng": -86.6271606,
      "category": "grocery",
      "name": "Food Lion",
      "brand": "Food Lion",
      "addr": null
    },
    {
      "id": "node/1945354519",
      "lat": 36.1509301,
      "lng": -86.6274074,
      "category": "convenience",
      "name": "Fred's",
      "brand": null,
      "addr": null
    },
    {
      "id": "node/1945355782",
      "lat": 36.1501245,
      "lng": -86.6259,
      "category": "restaurant",
      "name": "La Hacienda",
      "brand": null,
      "addr": null
    },
    {
      "id": "node/1945356372",
      "lat": 36.151216,
      "lng": -86.6256369,
      "category": "fast_food",
      "name": "Subway",
      "brand": "Subway",
      "addr": "3686 Bell Road Nashville"
    },
    {
      "id": "node/1945360019",
      "lat": 36.1577651,
      "lng": -86.6352716,
      "category": "fuel",
      "name": "Mapco",
      "brand": "Mapco",
      "addr": null
    },
    {
      "id": "node/1945361448",
      "lat": 36.1534124,
      "lng": -86.6258906,
      "category": "fuel",
      "name": "Mapco",
      "brand": null,
      "addr": null
    },
    {
      "id": "node/1959783796",
      "lat": 36.1482777,
      "lng": -86.665358,
      "category": "restaurant",
      "name": "Jalisco Mexican Restaurant",
      "brand": null,
      "addr": null
    },
    {
      "id": "node/1960586637",
      "lat": 36.1372392,
      "lng": -86.8006033,
      "category": "restaurant",
      "name": "Sweet Cece's Frozen Yogurt",
      "brand": null,
      "addr": null
    },
    {
      "id": "node/1960587442",
      "lat": 36.1364319,
      "lng": -86.8007256,
      "category": "cafe",
      "name": "Fido",
      "brand": null,
      "addr": "21st Avenue South Nashville"
    },
    {
      "id": "node/1960607483",
      "lat": 36.1457258,
      "lng": -86.7993212,
      "category": "pharmacy",
      "name": "CVS Pharmacy",
      "brand": "CVS Pharmacy",
      "addr": null
    },
    {
      "id": "node/1960610102",
      "lat": 36.1385693,
      "lng": -86.800437,
      "category": "restaurant",
      "name": "Pizza Perfect",
      "brand": null,
      "addr": "1602 21st Avenue South Nashville"
    },
    {
      "id": "node/1960610751",
      "lat": 36.1393593,
      "lng": -86.8002679,
      "category": "fast_food",
      "name": "Dunkin'",
      "brand": "Dunkin'",
      "addr": "1500 21st Avenue South Nashville"
    },
    {
      "id": "node/1960751549",
      "lat": 36.1216066,
      "lng": -86.7905289,
      "category": "restaurant",
      "name": "Burgur Up",
      "brand": null,
      "addr": null
    },
    {
      "id": "node/1960751555",
      "lat": 36.1205675,
      "lng": -86.7908473,
      "category": "restaurant",
      "name": "Las Paletas",
      "brand": null,
      "addr": null
    },
    {
      "id": "node/1960751700",
      "lat": 36.1228589,
      "lng": -86.7898637,
      "category": "restaurant",
      "name": "Edley's BBQ",
      "brand": null,
      "addr": null
    },
    {
      "id": "node/1961178132",
      "lat": 36.1419971,
      "lng": -86.7715657,
      "category": "restaurant",
      "name": "Gabby's Burgers",
      "brand": null,
      "addr": null
    },
    {
      "id": "node/1961194991",
      "lat": 36.1529164,
      "lng": -86.7957109,
      "category": "restaurant",
      "name": "Goten Restaurant and Sushi Bar",
      "brand": null,
      "addr": null
    },
    {
      "id": "node/1961197251",
      "lat": 36.1533842,
      "lng": -86.7956626,
      "category": "restaurant",
      "name": "Parlor Doughnuts",
      "brand": null,
      "addr": "1720 West End Avenue Nashville"
    },
    {
      "id": "node/1961206247",
      "lat": 36.1483524,
      "lng": -86.8059586,
      "category": "fast_food",
      "name": "Papa John's",
      "brand": "Papa John's",
      "addr": "2316 West End Avenue Nashville"
    },
    {
      "id": "node/1961220040",
      "lat": 36.1446732,
      "lng": -86.8124908,
      "category": "restaurant",
      "name": "Ted's Montana Grill",
      "brand": null,
      "addr": null
    },
    {
      "id": "node/1961221411",
      "lat": 36.1445086,
      "lng": -86.8124479,
      "category": "restaurant",
      "name": "Maggie Moo's Ice Cream",
      "brand": null,
      "addr": null
    },
    {
      "id": "node/1961222514",
      "lat": 36.144235,
      "lng": -86.8130984,
      "category": "fast_food",
      "name": "Chipotle",
      "brand": "Chipotle",
      "addr": "2825 West End Avenue Nashville"
    },
    {
      "id": "node/1961223218",
      "lat": 36.144097,
      "lng": -86.8133169,
      "category": "fast_food",
      "name": "Panera Bread",
      "brand": "Panera Bread",
      "addr": null
    },
    {
      "id": "node/1961224926",
      "lat": 36.1443678,
      "lng": -86.8137241,
      "category": "restaurant",
      "name": "Bombay Palace",
      "brand": null,
      "addr": "2912 West End Avenue Nashville"
    },
    {
      "id": "node/1961233814",
      "lat": 36.1433736,
      "lng": -86.8150228,
      "category": "pharmacy",
      "name": "Walgreens",
      "brand": "Walgreens",
      "addr": null
    },
    {
      "id": "node/1961235087",
      "lat": 36.1425462,
      "lng": -86.8151087,
      "category": "bank",
      "name": null,
      "brand": null,
      "addr": null
    },
    {
      "id": "node/1961235090",
      "lat": 36.1435685,
      "lng": -86.813789,
      "category": "cafe",
      "name": "Starbucks",
      "brand": "Starbucks",
      "addr": "3005 West End Avenue Nashville"
    },
    {
      "id": "node/1961235767",
      "lat": 36.1438241,
      "lng": -86.8135476,
      "category": "fast_food",
      "name": "Which Wich?",
      "brand": "Which Wich?",
      "addr": null
    },
    {
      "id": "node/1961237118",
      "lat": 36.1434299,
      "lng": -86.8141323,
      "category": "restaurant",
      "name": "Rumba",
      "brand": null,
      "addr": null
    },
    {
      "id": "node/1961237121",
      "lat": 36.1438708,
      "lng": -86.8142276,
      "category": "bank",
      "name": "Wilson Bank & Trust",
      "brand": null,
      "addr": "2930 West End Avenue Nashville"
    },
    {
      "id": "node/1961238322",
      "lat": 36.1437189,
      "lng": -86.8144585,
      "category": "restaurant",
      "name": "BrickTop's",
      "brand": null,
      "addr": null
    },
    {
      "id": "node/1961243189",
      "lat": 36.1417448,
      "lng": -86.8161547,
      "category": "restaurant",
      "name": "Tin Angel",
      "brand": null,
      "addr": null
    },
    {
      "id": "node/1961243194",
      "lat": 36.1431815,
      "lng": -86.8143834,
      "category": "bank",
      "name": null,
      "brand": null,
      "addr": null
    },
    {
      "id": "node/1961251934",
      "lat": 36.1481127,
      "lng": -86.808387,
      "category": "restaurant",
      "name": "Wild Berry Acai Bowls - Midtown",
      "brand": null,
      "addr": "2424 Elliston Place Nashville"
    },
    {
      "id": "node/1961254136",
      "lat": 36.1482584,
      "lng": -86.8080802,
      "category": "restaurant",
      "name": "Satay",
      "brand": null,
      "addr": "2412 Elliston Place"
    },
    {
      "id": "node/1961255704",
      "lat": 36.1481517,
      "lng": -86.8082851,
      "category": "fast_food",
      "name": "Smoothie King",
      "brand": "Smoothie King",
      "addr": null
    },
    {
      "id": "node/1961289898",
      "lat": 36.1429079,
      "lng": -86.8147065,
      "category": "restaurant",
      "name": "Stoney River Legendary Steaks",
      "brand": null,
      "addr": null
    },
    {
      "id": "node/1961301218",
      "lat": 36.1508705,
      "lng": -86.8007309,
      "category": "fast_food",
      "name": "Five Guys",
      "brand": "Five Guys",
      "addr": "2018 West End Avenue Nashville"
    },
    {
      "id": "node/1961323162",
      "lat": 36.1824839,
      "lng": -86.7355783,
      "category": "restaurant",
      "name": "Jeni's Splendid Ice Cream",
      "brand": null,
      "addr": null
    },
    {
      "id": "node/1961323860",
      "lat": 36.182722,
      "lng": -86.735294,
      "category": "restaurant",
      "name": "Rose Pepper",
      "brand": null,
      "addr": null
    },
    {
      "id": "node/1961327252",
      "lat": 36.1780436,
      "lng": -86.7513821,
      "category": "restaurant",
      "name": "Marche Artisan Foods",
      "brand": null,
      "addr": null
    },
    {
      "id": "node/1962178068",
      "lat": 35.9248697,
      "lng": -86.8703185,
      "category": "restaurant",
      "name": "Franklin Mercantile Deli",
      "brand": null,
      "addr": null
    },
    {
      "id": "node/1962178129",
      "lat": 35.9248611,
      "lng": -86.8693422,
      "category": "restaurant",
      "name": "Mellow Mushroom",
      "brand": "Mellow Mushroom",
      "addr": null
    },
    {
      "id": "node/1962179601",
      "lat": 36.123772,
      "lng": -86.8503093,
      "category": "grocery",
      "name": "Kroger",
      "brand": "Kroger",
      "addr": "4560 Harding Pike Nashville"
    },
    {
      "id": "node/1962179696",
      "lat": 36.1247859,
      "lng": -86.8493759,
      "category": "restaurant",
      "name": "Ninki",
      "brand": null,
      "addr": null
    },
    {
      "id": "node/1962179716",
      "lat": 36.1249852,
      "lng": -86.8491613,
      "category": "cafe",
      "name": "Starbucks",
      "brand": "Starbucks",
      "addr": "4514 Harding Pike Nashville"
    },
    {
      "id": "node/1962185945",
      "lat": 36.2189651,
      "lng": -86.6936803,
      "category": "fuel",
      "name": "Exxon",
      "brand": "Exxon",
      "addr": null
    },
    {
      "id": "node/1996155571",
      "lat": 36.0924172,
      "lng": -86.7351173,
      "category": "restaurant",
      "name": "Erbil Kebab Restaurant",
      "brand": null,
      "addr": "3734 Nolensville Pike"
    },
    {
      "id": "node/1996157489",
      "lat": 36.0882059,
      "lng": -86.7310055,
      "category": "restaurant",
      "name": "Rancho Cantina",
      "brand": null,
      "addr": "3798 Nolensville Pike"
    },
    {
      "id": "node/1996163527",
      "lat": 36.0878829,
      "lng": -86.7305361,
      "category": "restaurant",
      "name": "Grassmere Grill",
      "brand": null,
      "addr": "3802 Nolensville Pike"
    },
    {
      "id": "node/1996173879",
      "lat": 36.0265243,
      "lng": -86.7133298,
      "category": "restaurant",
      "name": "Sushi o Sushi",
      "brand": null,
      "addr": "6023 Nolensville Pike"
    },
    {
      "id": "node/2001891307",
      "lat": 36.1113986,
      "lng": -86.7421574,
      "category": "restaurant",
      "name": "Ginger Thai Restaurant",
      "brand": null,
      "addr": "2861B Logan Street"
    },
    {
      "id": "node/2001960643",
      "lat": 36.1113853,
      "lng": -86.7666851,
      "category": "fast_food",
      "name": "Chipotle",
      "brand": "Chipotle",
      "addr": "731 Thompson Lane Nashville"
    },
    {
      "id": "node/2003840715",
      "lat": 36.1112507,
      "lng": -86.7412909,
      "category": "restaurant",
      "name": "Osh Restaurant & Grill",
      "brand": null,
      "addr": "216 Thompson Lane"
    },
    {
      "id": "node/2010038159",
      "lat": 36.110852,
      "lng": -86.7470946,
      "category": "restaurant",
      "name": "Gojo Ethiopian Cafe and Restaurant",
      "brand": null,
      "addr": "415 Thompson Lane"
    },
    {
      "id": "node/2010473019",
      "lat": 36.1120451,
      "lng": -86.7674354,
      "category": "fast_food",
      "name": "Wendy's",
      "brand": "Wendy's",
      "addr": "741 Thompson Lane Nashville"
    },
    {
      "id": "node/2011444954",
      "lat": 36.111936,
      "lng": -86.7665863,
      "category": "restaurant",
      "name": "Logan's Roadhouse",
      "brand": "Logan's Roadhouse",
      "addr": "727 thompson Lane"
    },
    {
      "id": "node/2011449318",
      "lat": 36.1124301,
      "lng": -86.7655563,
      "category": "restaurant",
      "name": "Applebee's",
      "brand": "Applebee's Neighborhood Grill & Bar",
      "addr": "718 Thompson Lane"
    },
    {
      "id": "node/2011450781",
      "lat": 36.1128338,
      "lng": -86.7650263,
      "category": "fast_food",
      "name": "Subway",
      "brand": "Subway",
      "addr": "718 Thompson Lane Nashville"
    },
    {
      "id": "node/2014634070",
      "lat": 36.1343911,
      "lng": -86.622028,
      "category": "restaurant",
      "name": "The Cove at Elm Hill Marina",
      "brand": null,
      "addr": null
    },
    {
      "id": "node/2016035621",
      "lat": 36.1115488,
      "lng": -86.7460719,
      "category": "pharmacy",
      "name": "Walgreens",
      "brand": "Walgreens",
      "addr": "400 Thompson Lane"
    },
    {
      "id": "node/2017302248",
      "lat": 36.1112838,
      "lng": -86.7416141,
      "category": "fast_food",
      "name": "Papa John's",
      "brand": "Papa John's",
      "addr": "222 Thompson Lane Nashville"
    },
    {
      "id": "node/2017391260",
      "lat": 36.1125223,
      "lng": -86.7660319,
      "category": "restaurant",
      "name": "Baja Burrito",
      "brand": null,
      "addr": "722 Thompson Lane"
    },
    {
      "id": "node/2017392235",
      "lat": 36.112558,
      "lng": -86.7665603,
      "category": "fuel",
      "name": "Shell",
      "brand": "Shell",
      "addr": null
    },
    {
      "id": "node/2018729198",
      "lat": 36.1061346,
      "lng": -86.7636763,
      "category": "fast_food",
      "name": "Panda Express",
      "brand": "Panda Express",
      "addr": "2534 Powell Avenue Nashville"
    },
    {
      "id": "node/2018729199",
      "lat": 36.1059331,
      "lng": -86.7634885,
      "category": "fast_food",
      "name": "Panera Bread",
      "brand": "Panera Bread",
      "addr": "2534 Powell Avenue Nashville"
    },
    {
      "id": "node/2018961153",
      "lat": 36.1124276,
      "lng": -86.7641591,
      "category": "fast_food",
      "name": "Firehouse Subs",
      "brand": "Firehouse Subs",
      "addr": "708 Thompson Lane"
    },
    {
      "id": "node/2018961157",
      "lat": 36.1127699,
      "lng": -86.7662083,
      "category": "cafe",
      "name": "Sam & Zoe's",
      "brand": null,
      "addr": "525 Heather Place"
    },
    {
      "id": "node/2018961163",
      "lat": 36.1128176,
      "lng": -86.7648243,
      "category": "restaurant",
      "name": "Kebab Gyro",
      "brand": null,
      "addr": "718 Thompson Lane"
    },
    {
      "id": "node/2018982678",
      "lat": 36.1127396,
      "lng": -86.7672087,
      "category": "bank",
      "name": "Pinnacle Bank",
      "brand": "Pinnacle Bank",
      "addr": "2833 Bransford Avenue"
    },
    {
      "id": "node/2019628719",
      "lat": 36.116403,
      "lng": -86.7659865,
      "category": "restaurant",
      "name": "The Pfunky Griddle",
      "brand": null,
      "addr": "2800 Bransford Avenue"
    },
    {
      "id": "node/2025892958",
      "lat": 36.09571,
      "lng": -86.737819,
      "category": "fuel",
      "name": "Shell",
      "brand": "Shell",
      "addr": null
    },
    {
      "id": "node/2025893323",
      "lat": 36.110727,
      "lng": -86.754788,
      "category": "bank",
      "name": "first Tennessee Bank",
      "brand": null,
      "addr": "635 Thompson Lane"
    },
    {
      "id": "node/2030045691",
      "lat": 36.111512,
      "lng": -86.7537202,
      "category": "restaurant",
      "name": "El Mariachi Mexican Restaurant",
      "brand": null,
      "addr": "614 Thompson Lane"
    },
    {
      "id": "node/2030045696",
      "lat": 36.1114947,
      "lng": -86.7541145,
      "category": "bank",
      "name": "Wells Fargo",
      "brand": "Wells Fargo",
      "addr": "618 Thompson Lane"
    },
    {
      "id": "node/2030837587",
      "lat": 36.1108143,
      "lng": -86.7557453,
      "category": "bank",
      "name": "Bank of America",
      "brand": "Bank of America",
      "addr": "645 Thompson Lane"
    },
    {
      "id": "node/2030837610",
      "lat": 36.0960932,
      "lng": -86.7382734,
      "category": "restaurant",
      "name": "Whitt's Barbecue",
      "brand": null,
      "addr": "3621 Nolensville Pike"
    },
    {
      "id": "node/2037600587",
      "lat": 36.1115534,
      "lng": -86.7666512,
      "category": "bank",
      "name": "Regions Bank",
      "brand": "Regions Bank",
      "addr": "729 Thompson Lane"
    },
    {
      "id": "node/2037600596",
      "lat": 36.111679,
      "lng": -86.7578964,
      "category": "fuel",
      "name": "Daily's Shell",
      "brand": "Shell",
      "addr": null
    },
    {
      "id": "node/2041054552",
      "lat": 36.0783848,
      "lng": -86.726975,
      "category": "auto",
      "name": "Goodyear",
      "brand": "Goodyear",
      "addr": "405 Harding Place"
    },
    {
      "id": "node/2041054554",
      "lat": 36.0811509,
      "lng": -86.7262991,
      "category": "auto",
      "name": "Firestone",
      "brand": "Firestone",
      "addr": "4044 Nolensville Pike"
    },
    {
      "id": "node/2041167368",
      "lat": 36.0815732,
      "lng": -86.7275651,
      "category": "grocery",
      "name": "Patel Brothers",
      "brand": "Patel Brothers",
      "addr": "4043 Nolensville Pike"
    },
    {
      "id": "node/2042901835",
      "lat": 36.111038,
      "lng": -86.7426125,
      "category": "fuel",
      "name": "Marathon Gas station",
      "brand": "Marathon",
      "addr": null
    },
    {
      "id": "node/2042901848",
      "lat": 36.1110337,
      "lng": -86.7421297,
      "category": "fuel",
      "name": "Phillips 66 gas station",
      "brand": "Phillips 66",
      "addr": null
    },
    {
      "id": "node/2043275019",
      "lat": 36.0784221,
      "lng": -86.7249803,
      "category": "restaurant",
      "name": "Las Cazuelas",
      "brand": null,
      "addr": "4114 Nolensville Pike"
    },
    {
      "id": "node/2043275020",
      "lat": 36.0776208,
      "lng": -86.7253972,
      "category": "fuel",
      "name": "Mapco",
      "brand": "Mapco",
      "addr": null
    },
    {
      "id": "node/2044164068",
      "lat": 36.0869072,
      "lng": -86.7307881,
      "category": "fuel",
      "name": "Citgo Elysian Market",
      "brand": "Citgo",
      "addr": null
    },
    {
      "id": "node/2044164083",
      "lat": 36.0860489,
      "lng": -86.730198,
      "category": "grocery",
      "name": "Fiesta E-Mart",
      "brand": null,
      "addr": "3905 Nolensville Pike"
    },
    {
      "id": "node/2044576993",
      "lat": 36.0865431,
      "lng": -86.7302463,
      "category": "restaurant",
      "name": "Tacos y Mariscos El Amigo",
      "brand": null,
      "addr": "3901 Nolensville Pike"
    },
    {
      "id": "node/2045317247",
      "lat": 36.0927171,
      "lng": -86.7353815,
      "category": "auto",
      "name": "Nashville Auto Service",
      "brand": null,
      "addr": "3730 Nolensville Pike"
    },
    {
      "id": "node/2045317252",
      "lat": 36.1043249,
      "lng": -86.7423285,
      "category": "fuel",
      "name": "Mapco",
      "brand": "Mapco",
      "addr": null
    },
    {
      "id": "node/2046004026",
      "lat": 36.0771609,
      "lng": -86.7258928,
      "category": "fuel",
      "name": "BP",
      "brand": "BP",
      "addr": null
    },
    {
      "id": "node/2046004027",
      "lat": 36.075198,
      "lng": -86.7256687,
      "category": "grocery",
      "name": "K & S World Market",
      "brand": null,
      "addr": "4225 Nolensville Pike"
    },
    {
      "id": "node/2047019613",
      "lat": 36.0854816,
      "lng": -86.7274578,
      "category": "grocery",
      "name": "Noor International Market",
      "brand": null,
      "addr": "540 Paragon Mills Road"
    },
    {
      "id": "node/2047019614",
      "lat": 36.0835481,
      "lng": -86.7266209,
      "category": "restaurant",
      "name": "Pupuseria Salvadorena",
      "brand": null,
      "addr": "340 Welch Road"
    },
    {
      "id": "node/2049196271",
      "lat": 36.0842417,
      "lng": -86.7293675,
      "category": "fast_food",
      "name": "Little Caesars",
      "brand": "Little Caesars",
      "addr": "3973 Nolensville Pike"
    },
    {
      "id": "node/2049698400",
      "lat": 36.1080409,
      "lng": -86.7433103,
      "category": "fast_food",
      "name": "Burger King",
      "brand": "Burger King",
      "addr": "2950 Nolensville Pike Nashville"
    },
    {
      "id": "node/2050370205",
      "lat": 36.0989482,
      "lng": -86.7387715,
      "category": "restaurant",
      "name": "Kebab Gyros",
      "brand": null,
      "addr": "3416 Nolensville Pike"
    },
    {
      "id": "node/2050370206",
      "lat": 36.0982634,
      "lng": -86.7384925,
      "category": "fuel",
      "name": "BP",
      "brand": "BP",
      "addr": null
    },
    {
      "id": "node/2052029964",
      "lat": 36.0999039,
      "lng": -86.7389591,
      "category": "restaurant",
      "name": "Siam Cafe",
      "brand": null,
      "addr": "316 McCall Street"
    },
    {
      "id": "node/2052183034",
      "lat": 36.0771232,
      "lng": -86.7263635,
      "category": "grocery",
      "name": "Botan Market",
      "brand": null,
      "addr": "4905 Edmondson Pike"
    },
    {
      "id": "node/2053343520",
      "lat": 36.0967348,
      "lng": -86.7384338,
      "category": "restaurant",
      "name": "Tacos y Mariscos “El Tapatio” #2",
      "brand": null,
      "addr": "3611 Nolensville Pike"
    },
    {
      "id": "node/2053707442",
      "lat": 36.1047279,
      "lng": -86.762316,
      "category": "restaurant",
      "name": "Rafferty's Restaurant & Bar",
      "brand": null,
      "addr": "4041 Armory Oaks Drive Nashville"
    },
    {
      "id": "node/2056623778",
      "lat": 36.1123557,
      "lng": -86.7632713,
      "category": "restaurant",
      "name": "Calypso Cafe",
      "brand": null,
      "addr": "700 Thompson Lane"
    },
    {
      "id": "node/2057011340",
      "lat": 36.1128632,
      "lng": -86.7652634,
      "category": "grocery",
      "name": "Aleksey's Russian & Eastern European Market",
      "brand": null,
      "addr": "718 Thompson Lane"
    },
    {
      "id": "node/2057011341",
      "lat": 36.1128975,
      "lng": -86.7650308,
      "category": "restaurant",
      "name": "Pizza Hut",
      "brand": "Pizza Hut",
      "addr": "718 Thompson Lane"
    },
    {
      "id": "node/2057734038",
      "lat": 36.1133192,
      "lng": -86.7678599,
      "category": "cafe",
      "name": "Sunflower Cafe",
      "brand": null,
      "addr": "2834 Azalea Place"
    },
    {
      "id": "node/2060743859",
      "lat": 36.0946936,
      "lng": -86.7374093,
      "category": "fast_food",
      "name": "Captain D's",
      "brand": "Captain D's",
      "addr": "3715 Nolensville Pike"
    },
    {
      "id": "node/2060743860",
      "lat": 36.0944812,
      "lng": -86.7372161,
      "category": "grocery",
      "name": "Tara International Market",
      "brand": null,
      "addr": "3721 Nolensville Pike"
    },
    {
      "id": "node/2060875761",
      "lat": 36.0902803,
      "lng": -86.7331073,
      "category": "restaurant",
      "name": "Norman Couser's Country Cookin'",
      "brand": null,
      "addr": "3754 Nolensville Pike"
    },
    {
      "id": "node/2062524661",
      "lat": 36.0871423,
      "lng": -86.7311117,
      "category": "auto",
      "name": "Precision Tune Auto Care",
      "brand": null,
      "addr": "3813 Nolensville Pike"
    },
    {
      "id": "node/2062524668",
      "lat": 36.0873781,
      "lng": -86.7312906,
      "category": "auto",
      "name": "Jiffy Lube",
      "brand": "Jiffy Lube",
      "addr": "3811 Nolensville Pike"
    },
    {
      "id": "node/2065248043",
      "lat": 36.0976262,
      "lng": -86.7380048,
      "category": "auto",
      "name": "Larry's Auto & Tire Inc.",
      "brand": null,
      "addr": "3600 Nolensville Pike"
    },
    {
      "id": "node/2065248044",
      "lat": 36.0971537,
      "lng": -86.737742,
      "category": "auto",
      "name": "Meineke",
      "brand": "Meineke",
      "addr": "3604 Nolensville Pike"
    },
    {
      "id": "node/2065692079",
      "lat": 36.1114673,
      "lng": -86.7492704,
      "category": "auto",
      "name": "Alva's Quick lube plus",
      "brand": null,
      "addr": "524 Thompson Lane"
    },
    {
      "id": "node/2065692080",
      "lat": 36.111502,
      "lng": -86.7497156,
      "category": "auto",
      "name": "Alva's Automotive & tire center",
      "brand": null,
      "addr": "530 Thompson Lane"
    },
    {
      "id": "node/2068403780",
      "lat": 36.0991968,
      "lng": -86.7389064,
      "category": "auto",
      "name": "Latino Tires Inc.",
      "brand": null,
      "addr": "3404 Nolensville Pike"
    },
    {
      "id": "node/2068496643",
      "lat": 36.0915121,
      "lng": -86.7354457,
      "category": "fuel",
      "name": "Mystik Express",
      "brand": "Mystik",
      "addr": null
    },
    {
      "id": "node/2069046140",
      "lat": 36.0874935,
      "lng": -86.7292604,
      "category": "grocery",
      "name": "Newroz Market",
      "brand": null,
      "addr": "389 Elysian Fields Court"
    },
    {
      "id": "node/2069046142",
      "lat": 36.0881633,
      "lng": -86.7298881,
      "category": "fast_food",
      "name": "Hibachi Supreme Buffet",
      "brand": null,
      "addr": "3804 Nolensville Pike"
    },
    {
      "id": "node/2069046143",
      "lat": 36.0878815,
      "lng": -86.7296306,
      "category": "grocery",
      "name": "Apna Bazaar",
      "brand": null,
      "addr": "3808 Nolensville Pike"
    },
    {
      "id": "node/2069046144",
      "lat": 36.087383,
      "lng": -86.7291263,
      "category": "grocery",
      "name": "Azdi International Market & Bakery",
      "brand": null,
      "addr": "391 Elysian Fields  Court"
    },
    {
      "id": "node/2070107702",
      "lat": 36.0808904,
      "lng": -86.727377,
      "category": "auto",
      "name": "4 Wheel Parts",
      "brand": null,
      "addr": "4095 Nolensville Pike"
    },
    {
      "id": "node/2076833099",
      "lat": 36.1060604,
      "lng": -86.742355,
      "category": "auto",
      "name": "AAMCO",
      "brand": "AAMCO",
      "addr": "3020 Nolensville Pike"
    },
    {
      "id": "node/2078206551",
      "lat": 36.0918586,
      "lng": -86.7347861,
      "category": "restaurant",
      "name": "Guantanamera Restaurant",
      "brand": null,
      "addr": "3744 Nolensville Pike"
    },
    {
      "id": "node/2144202950",
      "lat": 36.1552442,
      "lng": -86.7655857,
      "category": "bank",
      "name": "US Community Credit Union",
      "brand": null,
      "addr": "89 Hermitage Avenue"
    },
    {
      "id": "node/2261695638",
      "lat": 36.1492722,
      "lng": -86.6673765,
      "category": "fast_food",
      "name": "Back Yard Burgers",
      "brand": "Back Yard Burgers",
      "addr": null
    },
    {
      "id": "node/2261695678",
      "lat": 36.149326,
      "lng": -86.6669157,
      "category": "fast_food",
      "name": "Arby's",
      "brand": "Arby's",
      "addr": "2750 Elm Hill Pike Nashville"
    },
    {
      "id": "node/2287628779",
      "lat": 36.1715188,
      "lng": -86.7589418,
      "category": "cafe",
      "name": "Sky Blue Cafe",
      "brand": null,
      "addr": "700 Fatherland Street"
    },
    {
      "id": "node/2287642029",
      "lat": 36.1826431,
      "lng": -86.7346565,
      "category": "restaurant",
      "name": "Portland Brew",
      "brand": null,
      "addr": "1921 Eastland Avenue"
    },
    {
      "id": "node/2287642030",
      "lat": 36.1822231,
      "lng": -86.7354883,
      "category": "restaurant",
      "name": "Ugly Mugs Nashville",
      "brand": null,
      "addr": "1886 Eastland Avenue"
    },
    {
      "id": "node/2294881588",
      "lat": 35.8131751,
      "lng": -86.3684055,
      "category": "grocery",
      "name": "Publix",
      "brand": "Publix",
      "addr": "1731 South Rutherford Boulevard Murfreesboro"
    },
    {
      "id": "node/2296588764",
      "lat": 35.8335026,
      "lng": -86.3516458,
      "category": "restaurant",
      "name": "Jet's Pizza",
      "brand": "Jet's Pizza",
      "addr": "2975 South Rutherford Boulevard Murfreesboro"
    },
    {
      "id": "node/2296588765",
      "lat": 35.8337421,
      "lng": -86.3516337,
      "category": "fast_food",
      "name": "Subway",
      "brand": "Subway",
      "addr": "2975 South Rutherford Boulevard Murfreesboro"
    },
    {
      "id": "node/2303308833",
      "lat": 36.0481902,
      "lng": -86.7106247,
      "category": "restaurant",
      "name": "Fogatas",
      "brand": null,
      "addr": "5560 Nolensville Pike"
    },
    {
      "id": "node/2337345568",
      "lat": 36.1032761,
      "lng": -86.8186106,
      "category": "grocery",
      "name": "Whole Foods Market",
      "brand": "Whole Foods Market",
      "addr": "4021 Hillsboro Pike Nashville"
    },
    {
      "id": "node/2348715034",
      "lat": 36.1496,
      "lng": -86.8584112,
      "category": "fast_food",
      "name": "Jack in the Box",
      "brand": "Jack in the Box",
      "addr": "5615 Charlotte Pike Nashville"
    },
    {
      "id": "node/2348715035",
      "lat": 36.1503221,
      "lng": -86.8586368,
      "category": "pharmacy",
      "name": "Walgreens",
      "brand": "Walgreens",
      "addr": null
    },
    {
      "id": "node/2362864928",
      "lat": 36.084998,
      "lng": -86.7306901,
      "category": "restaurant",
      "name": "Taj Indian Restaurant",
      "brand": null,
      "addr": "3943 Nolensville Pike"
    },
    {
      "id": "node/2374211827",
      "lat": 36.1073213,
      "lng": -86.7437799,
      "category": "restaurant",
      "name": "Pupuseria Reina La Benedicion",
      "brand": null,
      "addr": "300 Timmons Street"
    },
    {
      "id": "node/2378589523",
      "lat": 36.1065478,
      "lng": -86.7432458,
      "category": "restaurant",
      "name": "Pupuseria La Metapaneca",
      "brand": null,
      "addr": "3013 Nolensville Pike"
    },
    {
      "id": "node/2406057241",
      "lat": 35.8728183,
      "lng": -86.3523218,
      "category": "grocery",
      "name": "Kroger",
      "brand": "Kroger",
      "addr": "2050 Lascassas Pike Murfreesboro"
    },
    {
      "id": "node/2406057509",
      "lat": 35.8725661,
      "lng": -86.3565168,
      "category": "bank",
      "name": "First Tennessee Bank",
      "brand": null,
      "addr": null
    },
    {
      "id": "node/2422119105",
      "lat": 36.5096421,
      "lng": -87.36589,
      "category": "fast_food",
      "name": "DQ Grill & Chill",
      "brand": "DQ Grill & Chill",
      "addr": "1055 South Riverside Drive Clarksville"
    },
    {
      "id": "node/2422120800",
      "lat": 36.5211913,
      "lng": -87.3630032,
      "category": "cafe",
      "name": "Lasaters",
      "brand": null,
      "addr": null
    },
    {
      "id": "node/2496646311",
      "lat": 36.4186244,
      "lng": -86.7985093,
      "category": "restaurant",
      "name": "Joses",
      "brand": null,
      "addr": null
    },
    {
      "id": "node/2496862481",
      "lat": 35.7400289,
      "lng": -86.45849,
      "category": "fuel",
      "name": "Cresent Market",
      "brand": null,
      "addr": null
    },
    {
      "id": "node/2498987547",
      "lat": 35.9652667,
      "lng": -86.8010245,
      "category": "restaurant",
      "name": "Ikura Sushi",
      "brand": null,
      "addr": "8113 Moores Lane Brentwood"
    },
    {
      "id": "node/2501310515",
      "lat": 36.0209007,
      "lng": -86.5777385,
      "category": "fast_food",
      "name": "Taco Bell",
      "brand": "Taco Bell",
      "addr": "5413 Murfreesboro Road La Vergne"
    },
    {
      "id": "node/2501738296",
      "lat": 36.0496432,
      "lng": -86.6471429,
      "category": "grocery",
      "name": "Kroger",
      "brand": "Kroger",
      "addr": "5319 Mount View Road Antioch"
    },
    {
      "id": "node/2501738297",
      "lat": 36.0498058,
      "lng": -86.6484342,
      "category": "fuel",
      "name": "Kroger Fuel Center",
      "brand": null,
      "addr": null
    },
    {
      "id": "node/2501738298",
      "lat": 36.0453186,
      "lng": -86.6612085,
      "category": "fuel",
      "name": "Shell",
      "brand": "Shell",
      "addr": "5272 Cane Ridge Road"
    },
    {
      "id": "node/2501738299",
      "lat": 36.044427,
      "lng": -86.6627956,
      "category": "fuel",
      "name": "Shell",
      "brand": "Shell",
      "addr": "1110 Bell Road"
    },
    {
      "id": "node/2501738300",
      "lat": 36.0451986,
      "lng": -86.6620657,
      "category": "fuel",
      "name": "BP",
      "brand": "BP",
      "addr": "1101 Bell Road"
    },
    {
      "id": "node/2502203131",
      "lat": 35.8631048,
      "lng": -86.4094928,
      "category": "fast_food",
      "name": "Taco Bell and Pizza Hut",
      "brand": null,
      "addr": "1301 Northwest Broad Street Murfreesboro"
    },
    {
      "id": "node/2502203132",
      "lat": 35.8069189,
      "lng": -86.3980608,
      "category": "fast_food",
      "name": "Taco Bell",
      "brand": "Taco Bell",
      "addr": "2482 South Church Street Murfreesboro"
    },
    {
      "id": "node/2502283904",
      "lat": 35.6357776,
      "lng": -87.015003,
      "category": "fast_food",
      "name": "Taco Bell and Pizza Hut",
      "brand": null,
      "addr": "127 Bear Creek Pike Columbia"
    },
    {
      "id": "node/2503417114",
      "lat": 36.0810506,
      "lng": -86.7594466,
      "category": "fuel",
      "name": "Shell",
      "brand": "Shell",
      "addr": "731 Harding Place"
    },
    {
      "id": "node/2503417119",
      "lat": 36.0780758,
      "lng": -86.7590173,
      "category": "fuel",
      "name": "Citgo",
      "brand": "Citgo",
      "addr": "4801 Trousdale Drive"
    },
    {
      "id": "node/2503417124",
      "lat": 36.0775792,
      "lng": -86.7590993,
      "category": "fuel",
      "name": "Mapco",
      "brand": "Mapco",
      "addr": "4805 Trousdale Drive"
    },
    {
      "id": "node/2503417128",
      "lat": 36.0379763,
      "lng": -86.7868111,
      "category": "fuel",
      "name": "Shell",
      "brand": "Shell",
      "addr": "5621 Franklin Pike"
    },
    {
      "id": "node/2503417132",
      "lat": 36.0371011,
      "lng": -86.7855116,
      "category": "fuel",
      "name": "Shell",
      "brand": "Shell",
      "addr": "799 Old Hickory Boulevard"
    },
    {
      "id": "node/2503417137",
      "lat": 36.0359766,
      "lng": -86.7867085,
      "category": "fuel",
      "name": "Exxon",
      "brand": "Exxon",
      "addr": "116 Franklin Road"
    },
    {
      "id": "node/2503417141",
      "lat": 36.0341167,
      "lng": -86.7879508,
      "category": "fuel",
      "name": "Gulf",
      "brand": "Gulf",
      "addr": "150 Franklin Road"
    },
    {
      "id": "node/2503417146",
      "lat": 36.034636,
      "lng": -86.7884295,
      "category": "fuel",
      "name": "Shell",
      "brand": "Shell",
      "addr": "141 Franklin Road"
    },
    {
      "id": "node/2503417150",
      "lat": 36.033606,
      "lng": -86.7882824,
      "category": "fuel",
      "name": "BP",
      "brand": "BP",
      "addr": "158 Franklin Road"
    },
    {
      "id": "node/2503417163",
      "lat": 35.9674595,
      "lng": -86.8129102,
      "category": "fuel",
      "name": "Shell",
      "brand": "Shell",
      "addr": "7112 Moores Lane"
    },
    {
      "id": "node/2503417167",
      "lat": 35.9647573,
      "lng": -86.8168243,
      "category": "fuel",
      "name": "Costco Gasoline",
      "brand": "Costco",
      "addr": "98 Seaboard Lane"
    },
    {
      "id": "node/2503417172",
      "lat": 35.9654967,
      "lng": -86.8037084,
      "category": "fuel",
      "name": "Circle K",
      "brand": "Circle K",
      "addr": "8009 Moores Lane"
    },
    {
      "id": "node/2503417176",
      "lat": 35.9638069,
      "lng": -86.8061277,
      "category": "fuel",
      "name": "Home Depot Fuel",
      "brand": null,
      "addr": "8101 Moores Lane"
    },
    {
      "id": "node/2503417182",
      "lat": 35.9620854,
      "lng": -86.8011703,
      "category": "fuel",
      "name": "Shell",
      "brand": "Shell",
      "addr": "1732 Carothers Parkway"
    },
    {
      "id": "node/2503437251",
      "lat": 35.8599332,
      "lng": -86.8297176,
      "category": "fuel",
      "name": "TA",
      "brand": "TA",
      "addr": "4400 Peytonsville Road"
    },
    {
      "id": "node/2503437253",
      "lat": 35.8605967,
      "lng": -86.8461145,
      "category": "fuel",
      "name": "Shell",
      "brand": "Shell",
      "addr": "1403 Lewisburg Avenue"
    },
    {
      "id": "node/2504322461",
      "lat": 36.1754414,
      "lng": -86.7932605,
      "category": "fuel",
      "name": "Kroger",
      "brand": "Kroger",
      "addr": null
    },
    {
      "id": "node/2504324118",
      "lat": 36.17665,
      "lng": -86.7749467,
      "category": "fuel",
      "name": "Mystik",
      "brand": null,
      "addr": null
    },
    {
      "id": "node/2521649571",
      "lat": 36.018134,
      "lng": -86.5698636,
      "category": "restaurant",
      "name": null,
      "brand": null,
      "addr": null
    },
    {
      "id": "node/2562346909",
      "lat": 36.0298024,
      "lng": -86.7913945,
      "category": "fast_food",
      "name": "Chipotle",
      "brand": "Chipotle",
      "addr": "269 Franklin Road Brentwood"
    },
    {
      "id": "node/2562346910",
      "lat": 36.0356803,
      "lng": -86.7888201,
      "category": "fast_food",
      "name": "Honey Baked Ham",
      "brand": "Honey Baked Ham",
      "addr": null
    },
    {
      "id": "node/2562347023",
      "lat": 36.0364435,
      "lng": -86.7876715,
      "category": "pharmacy",
      "name": "Walgreens",
      "brand": "Walgreens",
      "addr": null
    },
    {
      "id": "node/2562498874",
      "lat": 36.5823612,
      "lng": -87.0660116,
      "category": "restaurant",
      "name": "Adams Station BBQ",
      "brand": null,
      "addr": "7716 States Highway 41 Adams"
    },
    {
      "id": "node/2562636556",
      "lat": 36.6428024,
      "lng": -87.1600124,
      "category": "fuel",
      "name": "Marathon",
      "brand": "Marathon",
      "addr": "812 State Street Guthrie"
    },
    {
      "id": "node/2562693015",
      "lat": 36.6473642,
      "lng": -87.1649715,
      "category": "restaurant",
      "name": "American Cafe",
      "brand": null,
      "addr": "306 Ewing Street Guthrie"
    },
    {
      "id": "node/2577118809",
      "lat": 36.1658744,
      "lng": -86.7869526,
      "category": "restaurant",
      "name": "Tazza",
      "brand": null,
      "addr": "510 Church Street Nashville"
    },
    {
      "id": "node/2577118811",
      "lat": 36.1632353,
      "lng": -86.7804756,
      "category": "restaurant",
      "name": "Puckett's Grocery",
      "brand": null,
      "addr": "500 Church Street Nashville"
    },
    {
      "id": "node/2577118813",
      "lat": 36.1639681,
      "lng": -86.7805619,
      "category": "pharmacy",
      "name": "Walgreens",
      "brand": "Walgreens",
      "addr": "226 5th Avenue North Nashville"
    },
    {
      "id": "node/2597881510",
      "lat": 36.0315684,
      "lng": -86.8023821,
      "category": "fast_food",
      "name": "China Wok",
      "brand": "China Wok",
      "addr": null
    },
    {
      "id": "node/2597881512",
      "lat": 36.0312903,
      "lng": -86.802687,
      "category": "restaurant",
      "name": "Hanabi",
      "brand": null,
      "addr": null
    },
    {
      "id": "node/2597881515",
      "lat": 36.0313439,
      "lng": -86.8031329,
      "category": "fast_food",
      "name": "Jefferson's Wings - Burgers - Oysters",
      "brand": null,
      "addr": null
    },
    {
      "id": "node/2597881516",
      "lat": 36.0315591,
      "lng": -86.8025064,
      "category": "fast_food",
      "name": "Jersey Mike's Subs",
      "brand": "Jersey Mike's Subs",
      "addr": null
    },
    {
      "id": "node/2597881517",
      "lat": 36.031539,
      "lng": -86.802281,
      "category": "restaurant",
      "name": "Mediterranian Cuisine",
      "brand": null,
      "addr": null
    },
    {
      "id": "node/2597881520",
      "lat": 36.0313962,
      "lng": -86.8025644,
      "category": "restaurant",
      "name": "Westshore Pizza",
      "brand": null,
      "addr": null
    },
    {
      "id": "node/2597881521",
      "lat": 36.0313372,
      "lng": -86.8030434,
      "category": "dentist",
      "name": "WOW Orthodontics",
      "brand": null,
      "addr": null
    },
    {
      "id": "node/2607928466",
      "lat": 35.7341106,
      "lng": -86.918668,
      "category": "hospital",
      "name": "TriStar Spring Hill ER",
      "brand": null,
      "addr": "3001 Reserve Boulevard Spring Hill"
    },
    {
      "id": "node/2617511676",
      "lat": 36.1816606,
      "lng": -86.7356085,
      "category": "restaurant",
      "name": "Two Ten Jack",
      "brand": null,
      "addr": "1900 Eastland Ave, #105 Nashville"
    },
    {
      "id": "node/2622896620",
      "lat": 36.1627998,
      "lng": -86.7813817,
      "category": "fast_food",
      "name": "Subway",
      "brand": "Subway",
      "addr": null
    },
    {
      "id": "node/2622896667",
      "lat": 36.1628093,
      "lng": -86.781233,
      "category": "restaurant",
      "name": "Oscar's Taco Shop",
      "brand": null,
      "addr": "530 Church Street Nashville"
    },
    {
      "id": "node/2631550908",
      "lat": 35.7413459,
      "lng": -86.8918587,
      "category": "grocery",
      "name": "Kroger",
      "brand": "Kroger",
      "addr": "4900 Port Royal Road Spring Hill"
    },
    {
      "id": "node/2631550914",
      "lat": 35.7406231,
      "lng": -86.8916548,
      "category": "restaurant",
      "name": "Tito's",
      "brand": null,
      "addr": null
    },
    {
      "id": "node/2726701659",
      "lat": 36.0859386,
      "lng": -86.6476339,
      "category": "cafe",
      "name": "Starbucks",
      "brand": "Starbucks",
      "addr": "2308 Murfreesboro Pike Nashville"
    },
    {
      "id": "node/2726718155",
      "lat": 36.0861901,
      "lng": -86.6486585,
      "category": "fuel",
      "name": "BP",
      "brand": "BP",
      "addr": null
    },
    {
      "id": "node/2727574262",
      "lat": 36.103036,
      "lng": -86.6667613,
      "category": "fuel",
      "name": null,
      "brand": null,
      "addr": null
    },
    {
      "id": "node/2727592869",
      "lat": 36.0884152,
      "lng": -86.6090289,
      "category": "fuel",
      "name": "Shell Express",
      "brand": null,
      "addr": null
    },
    {
      "id": "node/2727610835",
      "lat": 36.1269415,
      "lng": -86.7109382,
      "category": "fuel",
      "name": "Mapco",
      "brand": null,
      "addr": null
    },
    {
      "id": "node/2727692378",
      "lat": 36.0891664,
      "lng": -86.6093311,
      "category": "grocery",
      "name": "Compton's Foodland",
      "brand": null,
      "addr": null
    },
    {
      "id": "node/2728991429",
      "lat": 36.1618042,
      "lng": -86.774844,
      "category": "restaurant",
      "name": "Rock Bottom Brewery",
      "brand": null,
      "addr": "111 Broadway"
    },
    {
      "id": "node/2728992017",
      "lat": 36.1645735,
      "lng": -86.7767238,
      "category": "restaurant",
      "name": "Hooters",
      "brand": "Hooters",
      "addr": "184 2nd Avenue North"
    },
    {
      "id": "node/2729257242",
      "lat": 36.1640987,
      "lng": -86.7791144,
      "category": "fast_food",
      "name": "Deviance foods. Gyros",
      "brand": null,
      "addr": "210 4th Avenue North"
    },
    {
      "id": "node/2729445814",
      "lat": 36.1765483,
      "lng": -86.7751114,
      "category": "convenience",
      "name": "Mystik",
      "brand": null,
      "addr": null
    },
    {
      "id": "node/2730111759",
      "lat": 36.1651723,
      "lng": -86.7804034,
      "category": "cafe",
      "name": "Starbucks",
      "brand": "Starbucks",
      "addr": "315 4th Avenue North Nashville"
    },
    {
      "id": "node/2730278641",
      "lat": 36.16306,
      "lng": -86.7761303,
      "category": "restaurant",
      "name": "Entry Mexican Restaurant",
      "brand": null,
      "addr": "139 2612 ave"
    },
    {
      "id": "node/2750713604",
      "lat": 36.3210064,
      "lng": -86.7134159,
      "category": "cafe",
      "name": "Flourgirls",
      "brand": null,
      "addr": "201 South Main Street Goodlettsville"
    },
    {
      "id": "node/2752447501",
      "lat": 36.3501303,
      "lng": -86.9302973,
      "category": "fuel",
      "name": "Shell",
      "brand": null,
      "addr": null
    },
    {
      "id": "node/2752447502",
      "lat": 36.3457425,
      "lng": -86.9338618,
      "category": "fuel",
      "name": "Shell",
      "brand": null,
      "addr": null
    },
    {
      "id": "node/2752447503",
      "lat": 36.3462712,
      "lng": -86.9344763,
      "category": "fuel",
      "name": "Marathon",
      "brand": null,
      "addr": null
    },
    {
      "id": "node/2752447504",
      "lat": 36.345424,
      "lng": -86.9334277,
      "category": "convenience",
      "name": "Twice Daily",
      "brand": null,
      "addr": null
    },
    {
      "id": "node/2752447505",
      "lat": 36.3461539,
      "lng": -86.9355188,
      "category": "convenience",
      "name": "Burnett's",
      "brand": null,
      "addr": null
    },
    {
      "id": "node/2831999092",
      "lat": 36.509906,
      "lng": -87.3650028,
      "category": "restaurant",
      "name": "Chi-Town Hot Dogs",
      "brand": null,
      "addr": "1057 South Riverside Drive Clarksville"
    },
    {
      "id": "node/2869355255",
      "lat": 36.1877268,
      "lng": -86.4094469,
      "category": "fuel",
      "name": "Circle K",
      "brand": "Circle K",
      "addr": null
    },
    {
      "id": "node/2869355256",
      "lat": 36.1875812,
      "lng": -86.4097837,
      "category": "convenience",
      "name": "Circle K",
      "brand": "Circle K",
      "addr": null
    },
    {
      "id": "node/2869355262",
      "lat": 36.1880863,
      "lng": -86.4082927,
      "category": "fuel",
      "name": "Thorntons",
      "brand": "Thorntons",
      "addr": null
    },
    {
      "id": "node/2869355264",
      "lat": 36.1882795,
      "lng": -86.4080597,
      "category": "convenience",
      "name": "Thorntons",
      "brand": "Thorntons",
      "addr": null
    },
    {
      "id": "node/2871622778",
      "lat": 36.5966192,
      "lng": -87.2868509,
      "category": "restaurant",
      "name": "Canela Mexican Grill",
      "brand": null,
      "addr": "3080A Wilma Rudolph Boulevard Clarksville"
    },
    {
      "id": "node/2882184675",
      "lat": 36.1544768,
      "lng": -86.5166592,
      "category": "fuel",
      "name": null,
      "brand": null,
      "addr": null
    },
    {
      "id": "node/2885415078",
      "lat": 36.026518,
      "lng": -86.7899687,
      "category": "restaurant",
      "name": "Peters Sushi",
      "brand": null,
      "addr": "330 Franklin Rd Brentwood"
    },
    {
      "id": "node/2886991164",
      "lat": 36.1053668,
      "lng": -86.7955353,
      "category": "cafe",
      "name": "The Well Coffeehouse",
      "brand": null,
      "addr": null
    },
    {
      "id": "node/2886992575",
      "lat": 36.1054764,
      "lng": -86.7979773,
      "category": "fast_food",
      "name": "Chick-fil-A",
      "brand": "Chick-fil-A",
      "addr": "1 University Park Drive Nashville"
    },
    {
      "id": "node/2931541981",
      "lat": 35.7928117,
      "lng": -86.4003239,
      "category": "restaurant",
      "name": "Sauce",
      "brand": null,
      "addr": "2858 South Church Street Murfreesboro"
    },
    {
      "id": "node/2931546504",
      "lat": 35.7924905,
      "lng": -86.4003565,
      "category": "restaurant",
      "name": "Fin Fusion Sushi Bar",
      "brand": null,
      "addr": "2856 South Church Street Murfreesboro"
    },
    {
      "id": "node/2931564708",
      "lat": 35.7905856,
      "lng": -86.4022332,
      "category": "grocery",
      "name": "Kroger",
      "brand": "Kroger",
      "addr": "2946 south Church Street Murfreesboro"
    },
    {
      "id": "node/2962852925",
      "lat": 35.5873452,
      "lng": -86.3545021,
      "category": "auto",
      "name": "Bell Buckle Motor Works",
      "brand": null,
      "addr": "181 Bell Buckle Wartrace Road Bell Buckle"
    },
    {
      "id": "node/2972073128",
      "lat": 35.97303,
      "lng": -87.129034,
      "category": "convenience",
      "name": "Mapco",
      "brand": null,
      "addr": "7002 City Center Way Fairview"
    },
    {
      "id": "node/2972073536",
      "lat": 35.9714128,
      "lng": -87.1280559,
      "category": "restaurant",
      "name": "Dos Margaritas",
      "brand": null,
      "addr": null
    },
    {
      "id": "node/3002763880",
      "lat": 35.91214,
      "lng": -86.3859905,
      "category": "grocery",
      "name": "Publix",
      "brand": "Publix",
      "addr": "3415 Memorial Boulevard Murfreesboro"
    },
    {
      "id": "node/3002763903",
      "lat": 35.886503,
      "lng": -86.384533,
      "category": "grocery",
      "name": "Kroger",
      "brand": "Kroger",
      "addr": "2325 Memorial Boulevard Murfreesboro"
    },
    {
      "id": "node/3011391700",
      "lat": 35.9239595,
      "lng": -86.871824,
      "category": "restaurant",
      "name": "Sweet CeCe's",
      "brand": null,
      "addr": "500 West Main Street Franklin"
    },
    {
      "id": "node/3020853237",
      "lat": 35.74483,
      "lng": -86.9403395,
      "category": "grocery",
      "name": "Food Lion",
      "brand": "Food Lion",
      "addr": null
    },
    {
      "id": "node/3020853242",
      "lat": 35.7095153,
      "lng": -86.9740117,
      "category": "fast_food",
      "name": "Burger King",
      "brand": "Burger King",
      "addr": "2540 Nashville Highway Columbia"
    },
    {
      "id": "node/3020980645",
      "lat": 35.8953579,
      "lng": -86.8773439,
      "category": "fast_food",
      "name": "Chick-fil-A",
      "brand": "Chick-fil-A",
      "addr": null
    },
    {
      "id": "node/3056782130",
      "lat": 36.5325727,
      "lng": -87.3527234,
      "category": "cafe",
      "name": "Starbucks",
      "brand": "Starbucks",
      "addr": "601 College Street Clarksville"
    },
    {
      "id": "node/3056782131",
      "lat": 36.5340051,
      "lng": -87.3540297,
      "category": "fast_food",
      "name": "Subway",
      "brand": "Subway",
      "addr": "Clarksville"
    },
    {
      "id": "node/3072486794",
      "lat": 36.5334548,
      "lng": -87.3579719,
      "category": "convenience",
      "name": "The Knight Stand C-Store",
      "brand": null,
      "addr": null
    },
    {
      "id": "node/3130841112",
      "lat": 36.5802652,
      "lng": -87.4122903,
      "category": "bank",
      "name": "US Bank Walmart",
      "brand": "US Bank",
      "addr": null
    },
    {
      "id": "node/3130841113",
      "lat": 36.5806609,
      "lng": -87.4126208,
      "category": "pharmacy",
      "name": "Walmart Pharmacy",
      "brand": "Walmart",
      "addr": null
    },
    {
      "id": "node/3130841114",
      "lat": 36.5809354,
      "lng": -87.4133756,
      "category": "auto",
      "name": "Walmart Tire and Lube Center",
      "brand": null,
      "addr": null
    },
    {
      "id": "node/3145116583",
      "lat": 36.5943829,
      "lng": -87.2917334,
      "category": "fast_food",
      "name": "McDonald's",
      "brand": "McDonald's",
      "addr": "3050 Wilma Rudolph Boulevard Clarksville"
    },
    {
      "id": "node/3145116584",
      "lat": 36.5944762,
      "lng": -87.2907123,
      "category": "bank",
      "name": "U.S. Bank",
      "brand": "U.S. Bank",
      "addr": "3050 Wilma Rudolph Boulevard Clarksville"
    },
    {
      "id": "node/3145116585",
      "lat": 36.5951168,
      "lng": -87.2907245,
      "category": "pharmacy",
      "name": "Walmart Pharmacy",
      "brand": "Walmart",
      "addr": null
    },
    {
      "id": "node/3145116586",
      "lat": 36.5955733,
      "lng": -87.2913271,
      "category": "auto",
      "name": "Walmart Auto Care Center",
      "brand": null,
      "addr": null
    },
    {
      "id": "node/3209985064",
      "lat": 36.3822723,
      "lng": -86.5575134,
      "category": "fuel",
      "name": "Station Camp Market",
      "brand": null,
      "addr": null
    },
    {
      "id": "node/3213687784",
      "lat": 36.3821581,
      "lng": -86.5575119,
      "category": "convenience",
      "name": "Station Camp Market",
      "brand": null,
      "addr": null
    },
    {
      "id": "node/3242771453",
      "lat": 36.3730752,
      "lng": -86.6166761,
      "category": "fuel",
      "name": null,
      "brand": null,
      "addr": null
    },
    {
      "id": "node/3260074378",
      "lat": 36.1568838,
      "lng": -86.8070223,
      "category": "fuel",
      "name": "Daily's",
      "brand": null,
      "addr": "2112 Charlotte Avenue Nashville"
    },
    {
      "id": "node/3271420111",
      "lat": 36.2006806,
      "lng": -86.7395587,
      "category": "fast_food",
      "name": "McDonald's",
      "brand": "McDonald's",
      "addr": "2806 Gallatin Pike Nashville"
    },
    {
      "id": "node/3407782193",
      "lat": 35.7207307,
      "lng": -86.3217117,
      "category": "fuel",
      "name": "Shell",
      "brand": null,
      "addr": null
    },
    {
      "id": "node/3407782293",
      "lat": 35.7209445,
      "lng": -86.3217734,
      "category": "convenience",
      "name": null,
      "brand": null,
      "addr": null
    },
    {
      "id": "node/3407782393",
      "lat": 35.7209657,
      "lng": -86.3215333,
      "category": "fast_food",
      "name": "Clark's CheeseSteak Factory",
      "brand": null,
      "addr": null
    },
    {
      "id": "node/3424201811",
      "lat": 36.1745382,
      "lng": -86.7585121,
      "category": "clinic",
      "name": "East Nashville Family Medicine",
      "brand": null,
      "addr": "801 Woodland Street Nashville"
    },
    {
      "id": "node/3424207632",
      "lat": 36.1742286,
      "lng": -86.7609421,
      "category": "auto",
      "name": "Greg's Auto Repair",
      "brand": null,
      "addr": "634 Main Street Nashville"
    },
    {
      "id": "node/3424207634",
      "lat": 36.1740706,
      "lng": -86.7506036,
      "category": "restaurant",
      "name": "Far East Nashville",
      "brand": null,
      "addr": "1008 Fatherland Street Nashville"
    },
    {
      "id": "node/3524523204",
      "lat": 36.169076,
      "lng": -86.6655968,
      "category": "restaurant",
      "name": "Phat Bytes",
      "brand": null,
      "addr": "2730 Lebanon Pike Donelson"
    },
    {
      "id": "node/3611289202",
      "lat": 36.1727294,
      "lng": -86.7822177,
      "category": "restaurant",
      "name": "The Stock-Yard",
      "brand": null,
      "addr": "901 2nd Avenue North Nashville"
    },
    {
      "id": "node/3620641904",
      "lat": 35.6246607,
      "lng": -86.2478422,
      "category": "fuel",
      "name": "BP",
      "brand": "BP",
      "addr": null
    },
    {
      "id": "node/3663280500",
      "lat": 35.7688909,
      "lng": -86.9177566,
      "category": "fast_food",
      "name": "Dunkin' Donuts",
      "brand": "Dunkin'",
      "addr": "2098 Wall Street Spring Hill"
    },
    {
      "id": "node/3665421361",
      "lat": 35.7731507,
      "lng": -86.9143061,
      "category": "fast_food",
      "name": "Domino's",
      "brand": "Domino's",
      "addr": "3012 Longford Drive Spring Hill"
    },
    {
      "id": "node/3678301029",
      "lat": 35.8178934,
      "lng": -86.3962011,
      "category": "restaurant",
      "name": "Parthenon Grille",
      "brand": null,
      "addr": "1962 South Church Street Murfreesboro"
    },
    {
      "id": "node/3678301033",
      "lat": 35.8064784,
      "lng": -86.3986955,
      "category": "pharmacy",
      "name": "Rite Aid",
      "brand": "Rite Aid",
      "addr": null
    },
    {
      "id": "node/3678301034",
      "lat": 35.8064741,
      "lng": -86.3994036,
      "category": "restaurant",
      "name": "Rick's Barbeque",
      "brand": null,
      "addr": null
    },
    {
      "id": "node/3678301036",
      "lat": 35.798299,
      "lng": -86.3994466,
      "category": "bank",
      "name": "Wilson Bank & Trust",
      "brand": null,
      "addr": null
    },
    {
      "id": "node/3678301037",
      "lat": 35.7978073,
      "lng": -86.3994519,
      "category": "auto",
      "name": "Discount Tire",
      "brand": "Discount Tire",
      "addr": null
    },
    {
      "id": "node/3678301038",
      "lat": 35.7971125,
      "lng": -86.3996366,
      "category": "fast_food",
      "name": "Zaxby's",
      "brand": "Zaxby's",
      "addr": "2678 South Church Street Murfreesboro"
    },
    {
      "id": "node/3678301041",
      "lat": 35.7911022,
      "lng": -86.4012557,
      "category": "fast_food",
      "name": "Jersey Mike's Subs",
      "brand": "Jersey Mike's Subs",
      "addr": null
    },
    {
      "id": "node/3678301042",
      "lat": 35.7908397,
      "lng": -86.4005078,
      "category": "cafe",
      "name": "Starbucks",
      "brand": "Starbucks",
      "addr": "2904 South Church Street Murfreesboro"
    },
    {
      "id": "node/3686242869",
      "lat": 36.1059094,
      "lng": -86.8187064,
      "category": "grocery",
      "name": "Kroger",
      "brand": "Kroger",
      "addr": "2131 Abbott Martin Road Nashville"
    },
    {
      "id": "node/3737651153",
      "lat": 35.9604284,
      "lng": -86.6721899,
      "category": "fast_food",
      "name": "Highway 55",
      "brand": null,
      "addr": "7240 Nolensville Road Nolensville"
    },
    {
      "id": "node/3737651154",
      "lat": 35.9607627,
      "lng": -86.6717554,
      "category": "restaurant",
      "name": "Campos Azul",
      "brand": null,
      "addr": "7240 Nolensville Road Nolensville"
    },
    {
      "id": "node/3737651185",
      "lat": 35.9627159,
      "lng": -86.6752827,
      "category": "restaurant",
      "name": "McDougal's Chicken",
      "brand": null,
      "addr": "7215 Nolensville Road Nolensville"
    },
    {
      "id": "node/3743084461",
      "lat": 36.1408407,
      "lng": -86.8022778,
      "category": "cafe",
      "name": "Vanderbilt Hospital Cafeteria",
      "brand": null,
      "addr": null
    },
    {
      "id": "node/3743195873",
      "lat": 35.963283,
      "lng": -86.6755427,
      "category": "fast_food",
      "name": "Mama's Java",
      "brand": null,
      "addr": "305 Sheldon Valley Dr Nolensville"
    },
    {
      "id": "node/3756221238",
      "lat": 35.5894797,
      "lng": -86.3545384,
      "category": "cafe",
      "name": "Bell Buckle Coffee Shop",
      "brand": null,
      "addr": "1 Webb Road East Bell Buckle"
    },
    {
      "id": "node/3801454537",
      "lat": 36.5303239,
      "lng": -87.356889,
      "category": "auto",
      "name": "Ford and Lincoln Car Service",
      "brand": "Ford; Lincoln; Motorcraft",
      "addr": null
    },
    {
      "id": "node/3802037853",
      "lat": 36.3233764,
      "lng": -86.7081573,
      "category": "fuel",
      "name": "Shell",
      "brand": "Shell",
      "addr": "Goodlettsville"
    },
    {
      "id": "node/3863631628",
      "lat": 36.1375278,
      "lng": -86.8026109,
      "category": "bank",
      "name": "Bank of America",
      "brand": "Bank of America",
      "addr": null
    },
    {
      "id": "node/3865326032",
      "lat": 36.1619592,
      "lng": -86.7744872,
      "category": "restaurant",
      "name": "Acme Feed and Seed",
      "brand": null,
      "addr": "101 Broadway"
    },
    {
      "id": "node/3865326033",
      "lat": 36.1775403,
      "lng": -86.7502365,
      "category": "restaurant",
      "name": "Margot",
      "brand": null,
      "addr": null
    },
    {
      "id": "node/3865667666",
      "lat": 36.152374,
      "lng": -86.7836473,
      "category": "restaurant",
      "name": "Burger Republic - Gulch",
      "brand": null,
      "addr": "420 11th Avenue South Nashville"
    },
    {
      "id": "node/3865667800",
      "lat": 36.1530058,
      "lng": -86.7832358,
      "category": "restaurant",
      "name": "Biscuit Love",
      "brand": null,
      "addr": "316 Pine Street Nashville"
    },
    {
      "id": "node/3885541640",
      "lat": 35.9169267,
      "lng": -86.8277296,
      "category": "restaurant",
      "name": "Asian Taste",
      "brand": null,
      "addr": null
    },
    {
      "id": "node/3885541641",
      "lat": 35.9174324,
      "lng": -86.8307327,
      "category": "fast_food",
      "name": "Big Shake's Hot Chicken & Fish",
      "brand": null,
      "addr": null
    },
    {
      "id": "node/3885541643",
      "lat": 35.9173347,
      "lng": -86.8344364,
      "category": "restaurant",
      "name": "Hot Wok",
      "brand": null,
      "addr": null
    },
    {
      "id": "node/3885541644",
      "lat": 35.9170622,
      "lng": -86.8344783,
      "category": "restaurant",
      "name": "King Gyros",
      "brand": null,
      "addr": null
    },
    {
      "id": "node/3885541645",
      "lat": 35.9174878,
      "lng": -86.8296817,
      "category": "restaurant",
      "name": "Los Primos Mexican Taqueria",
      "brand": null,
      "addr": null
    },
    {
      "id": "node/3885541647",
      "lat": 35.9171366,
      "lng": -86.8289055,
      "category": "restaurant",
      "name": "Pasta & Cream",
      "brand": null,
      "addr": null
    },
    {
      "id": "node/3885541648",
      "lat": 35.9166353,
      "lng": -86.827829,
      "category": "restaurant",
      "name": "Roma Pizza & Pasta",
      "brand": null,
      "addr": null
    },
    {
      "id": "node/3885541649",
      "lat": 35.9173612,
      "lng": -86.8304342,
      "category": "fast_food",
      "name": "Subway",
      "brand": "Subway",
      "addr": "1212 Murfreesboro Road Franklin"
    },
    {
      "id": "node/3885541650",
      "lat": 35.9119348,
      "lng": -86.8280441,
      "category": "restaurant",
      "name": "Super Suppers",
      "brand": null,
      "addr": null
    },
    {
      "id": "node/3885554843",
      "lat": 35.9176789,
      "lng": -86.8383895,
      "category": "restaurant",
      "name": "Spicy Hot Pot",
      "brand": null,
      "addr": null
    },
    {
      "id": "node/3889821977",
      "lat": 35.9241006,
      "lng": -86.4681959,
      "category": "fuel",
      "name": "Florence station",
      "brand": null,
      "addr": null
    },
    {
      "id": "node/3902414131",
      "lat": 36.5275854,
      "lng": -87.3608492,
      "category": "bank",
      "name": "U.S. Bank",
      "brand": "U.S. Bank",
      "addr": "1 Public Square Clarksville"
    },
    {
      "id": "node/3999663358",
      "lat": 35.9233828,
      "lng": -86.8709638,
      "category": "restaurant",
      "name": "Frothy Monkey",
      "brand": null,
      "addr": null
    },
    {
      "id": "node/4004261268",
      "lat": 35.9507602,
      "lng": -86.8173362,
      "category": "bank",
      "name": "TenCU",
      "brand": null,
      "addr": null
    },
    {
      "id": "node/4004261278",
      "lat": 35.9487538,
      "lng": -86.8162369,
      "category": "restaurant",
      "name": "Canton Chinese",
      "brand": null,
      "addr": null
    },
    {
      "id": "node/4004261283",
      "lat": 35.9488918,
      "lng": -86.8181508,
      "category": "fast_food",
      "name": "Teriyaki Madness",
      "brand": "Teriyaki Madness",
      "addr": null
    },
    {
      "id": "node/4004263825",
      "lat": 35.9504963,
      "lng": -86.8196571,
      "category": "restaurant",
      "name": "Greek Cafe Grill",
      "brand": null,
      "addr": "2021 Mallory Lane Franklin"
    },
    {
      "id": "node/4005110305",
      "lat": 36.2205528,
      "lng": -86.3439338,
      "category": "clinic",
      "name": "Vanderbilt Eye Institute",
      "brand": null,
      "addr": "1670 West Main Street Lebanon"
    },
    {
      "id": "node/4006506802",
      "lat": 36.1943211,
      "lng": -86.8315015,
      "category": "convenience",
      "name": "7-Eleven",
      "brand": "7-Eleven",
      "addr": "3200 Clarksville Pike Nashville"
    },
    {
      "id": "node/4006506803",
      "lat": 36.1942073,
      "lng": -86.8327189,
      "category": "bank",
      "name": null,
      "brand": null,
      "addr": null
    },
    {
      "id": "node/4006506827",
      "lat": 36.1970912,
      "lng": -86.8286116,
      "category": "convenience",
      "name": null,
      "brand": null,
      "addr": null
    },
    {
      "id": "node/4018025049",
      "lat": 35.871732,
      "lng": -86.3564533,
      "category": "fuel",
      "name": null,
      "brand": null,
      "addr": null
    },
    {
      "id": "node/4018025050",
      "lat": 35.8724333,
      "lng": -86.3558062,
      "category": "fuel",
      "name": null,
      "brand": null,
      "addr": null
    },
    {
      "id": "node/4030456189",
      "lat": 36.5396135,
      "lng": -87.3673715,
      "category": "restaurant",
      "name": "Casa Blanca Mexican Restaurant",
      "brand": null,
      "addr": "700 North Riverside Drive Clarksville"
    },
    {
      "id": "node/4030456190",
      "lat": 36.5399007,
      "lng": -87.3671634,
      "category": "fast_food",
      "name": "China Wok Express",
      "brand": null,
      "addr": "700F North Riverside Drive Clarksville"
    },
    {
      "id": "node/4030456191",
      "lat": 36.5396819,
      "lng": -87.3673219,
      "category": "cafe",
      "name": "Freeze Pleeze Ice Cream",
      "brand": null,
      "addr": "700B North Riverside Drive Clarksville"
    },
    {
      "id": "node/4143621890",
      "lat": 36.1706174,
      "lng": -86.7704963,
      "category": "auto",
      "name": "Crash Champions",
      "brand": "Crash Champions",
      "addr": null
    },
    {
      "id": "node/4186746811",
      "lat": 36.203342,
      "lng": -86.7381158,
      "category": "fast_food",
      "name": "Cook Out",
      "brand": "Cook Out",
      "addr": null
    },
    {
      "id": "node/4186746813",
      "lat": 36.2029784,
      "lng": -86.7383854,
      "category": "fast_food",
      "name": "Taco Bell",
      "brand": "Taco Bell",
      "addr": "2904 Gallatin Pike Nashville"
    },
    {
      "id": "node/4213644288",
      "lat": 35.8401503,
      "lng": -86.3802668,
      "category": "restaurant",
      "name": "Jeff's Family Friendly Restaurant",
      "brand": null,
      "addr": "467 South Hancock Street Murfreesboro"
    },
    {
      "id": "node/4259710489",
      "lat": 35.6153821,
      "lng": -87.0343006,
      "category": "cafe",
      "name": "Square Market & Café",
      "brand": null,
      "addr": null
    },
    {
      "id": "node/4318284394",
      "lat": 36.3498577,
      "lng": -86.7160824,
      "category": "fuel",
      "name": "Shell",
      "brand": "Shell",
      "addr": null
    },
    {
      "id": "node/4318284802",
      "lat": 36.3510873,
      "lng": -86.71486,
      "category": "restaurant",
      "name": "Waffle House",
      "brand": null,
      "addr": null
    },
    {
      "id": "node/4318329292",
      "lat": 36.3498956,
      "lng": -86.7163522,
      "category": "convenience",
      "name": "Food Mart",
      "brand": null,
      "addr": "934 Blue Star"
    },