[{"id":1,"name":"Wedgewood-Houston","county":"Davidson","lat":36.13,"lng":-86.776,"acres":3.2,"water":90,"permits":88,"popGrowth":75,"zoning":85,"amenity":60,"risk":55,"zone":"MUL","zoneDesc":"Mixed Use Limited","maxDensity":60,"usablePct":90,"currentUse":"Vacant industrial"},{"id":2,"name":"East Nashville (Lockeland)","county":"Davidson","lat":36.18,"lng":-86.745,"acres":1.8,"water":95,"permits":70,"popGrowth":55,"zoning":60,"amenity":35,"risk":65,"zone":"RS5","zoneDesc":"Single Family Small Lot","maxDensity":8.7,"usablePct":90,"currentUse":"Vacant infill"},{"id":3,"name":"Germantown","county":"Davidson","lat":36.18,"lng":-86.787,"acres":2.1,"water":95,"permits":78,"popGrowth":60,"zoning":70,"amenity":30,"risk":50,"zone":"MUG","zoneDesc":"Mixed Use General","maxDensity":80,"usablePct":95,"currentUse":"Surface parking"},{"id":4,"name":"The Nations","county":"Davidson","lat":36.155,"lng":-86.857,"acres":4.5,"water":85,"permits":82,"popGrowth":80,"zoning":80,"amenity":55,"risk":45,"zone":"MUL","zoneDesc":"Mixed Use Limited","maxDensity":60,"usablePct":90,"currentUse":"Vacant industrial"},{"id":5,"name":"Madison","county":"Davidson","lat":36.255,"lng":-86.713,"acres":6,"water":75,"permits":65,"popGrowth":68,"zoning":72,"amenity":78,"risk":35,"zone":"RM20","zoneDesc":"Multifamily, 20 DU/acre","maxDensity":20,"usablePct":80,"currentUse":"Aging strip retail"},{"id":6,"name":"Antioch (Cane Ridge)","county":"Davidson","lat":36.058,"lng":-86.671,"acres":8.2,"water":65,"permits":60,"popGrowth":72,"zoning":55,"amenity":65,"risk":30,"zone":"RM9","zoneDesc":"Multifamily, 9 DU/acre","maxDensity":9,"usablePct":75,"currentUse":"Pasture"},{"id":7,"name":"Bellevue","county":"Davidson","lat":36.075,"lng":-86.946,"acres":5.5,"water":55,"permits":45,"popGrowth":50,"zoning":40,"amenity":50,"risk":50,"zone":"R10","zoneDesc":"Single Family (10,000 sf min)","maxDensity":4.36,"usablePct":70,"currentUse":"Wooded undeveloped"},{"id":8,"name":"Goodlettsville","county":"Davidson/Sumner","lat":36.323,"lng":-86.713,"acres":7.8,"water":70,"permits":62,"popGrowth":65,"zoning":60,"amenity":70,"risk":30,"zone":"RM6","zoneDesc":"Multifamily, 6 DU/acre","maxDensity":6,"usablePct":80,"currentUse":"Pasture"},{"id":9,"name":"Donelson","county":"Davidson","lat":36.175,"lng":-86.683,"acres":3.5,"water":80,"permits":55,"popGrowth":48,"zoning":50,"amenity":40,"risk":45,"zone":"RM6","zoneDesc":"Multifamily, 6 DU/acre","maxDensity":6,"usablePct":85,"currentUse":"Aging multifamily"},{"id":10,"name":"Hermitage","county":"Davidson","lat":36.197,"lng":-86.61,"acres":6.2,"water":70,"permits":58,"popGrowth":55,"zoning":55,"amenity":60,"risk":35,"zone":"R8","zoneDesc":"Single Family (8,000 sf min)","maxDensity":5.45,"usablePct":75,"currentUse":"Wooded undeveloped"},{"id":11,"name":"Franklin (Mack Hatcher)","county":"Williamson","lat":35.928,"lng":-86.873,"acres":12,"water":75,"permits":80,"popGrowth":85,"zoning":65,"amenity":25,"risk":75,"zone":"Franklin R-3","zoneDesc":"Multifamily, 12 DU/acre","maxDensity":12,"usablePct":75,"currentUse":"Vacant"},{"id":12,"name":"Spring Hill (Saturn Pkwy)","county":"Williamson/Maury","lat":35.755,"lng":-86.93,"acres":18.5,"water":80,"permits":92,"popGrowth":95,"zoning":85,"amenity":75,"risk":40,"zone":"Spring Hill RM-2","zoneDesc":"Multifamily Medium, 8 DU/acre","maxDensity":8,"usablePct":80,"currentUse":"Pasture"},{"id":13,"name":"Nolensville","county":"Williamson","lat":35.953,"lng":-86.667,"acres":9,"water":72,"permits":88,"popGrowth":90,"zoning":78,"amenity":80,"risk":55,"zone":"Nolensville RM-1","zoneDesc":"Multifamily Low, 6 DU/acre","maxDensity":6,"usablePct":75,"currentUse":"Wooded"},{"id":14,"name":"Thompson's Station","county":"Williamson","lat":35.804,"lng":-86.892,"acres":14,"water":68,"permits":75,"popGrowth":88,"zoning":72,"amenity":82,"risk":50,"zone":"Williamson R-2","zoneDesc":"Suburban Residential, 4 DU/acre","maxDensity":4,"usablePct":70,"currentUse":"Pasture"},{"id":15,"name":"Brentwood (Cool Springs)","county":"Williamson","lat":35.999,"lng":-86.821,"acres":5,"water":90,"permits":60,"popGrowth":55,"zoning":35,"amenity":20,"risk":85,"zone":"Brentwood OR","zoneDesc":"Office Residential, 8 DU/acre","maxDensity":8,"usablePct":85,"currentUse":"Surface parking"},{"id":16,"name":"Smyrna (Sam Ridley)","county":"Rutherford","lat":35.982,"lng":-86.519,"acres":11,"water":78,"permits":85,"popGrowth":82,"zoning":75,"amenity":65,"risk":25,"zone":"Smyrna RM-12","zoneDesc":"Multifamily, 12 DU/acre","maxDensity":12,"usablePct":80,"currentUse":"Vacant commercial"},{"id":17,"name":"Murfreesboro (Medical Ctr)","county":"Rutherford","lat":35.846,"lng":-86.396,"acres":6.5,"water":85,"permits":78,"popGrowth":75,"zoning":70,"amenity":50,"risk":30,"zone":"Murfreesboro RM-15","zoneDesc":"Multifamily, 15 DU/acre","maxDensity":15,"usablePct":85,"currentUse":"Aging office"},{"id":18,"name":"La Vergne","county":"Rutherford","lat":36.016,"lng":-86.581,"acres":9.5,"water":72,"permits":70,"popGrowth":75,"zoning":68,"amenity":72,"risk":25,"zone":"La Vergne RM-12","zoneDesc":"Multifamily, 12 DU/acre","maxDensity":12,"usablePct":80,"currentUse":"Vacant"},{"id":19,"name":"Christiana","county":"Rutherford","lat":35.717,"lng":-86.391,"acres":22,"water":45,"permits":40,"popGrowth":65,"zoning":50,"amenity":85,"risk":20,"zone":"Rutherford RR","zoneDesc":"Rural Residential, 0.5 DU/acre","maxDensity":0.5,"usablePct":60,"currentUse":"Active farm"},{"id":20,"name":"Mt Juliet (Providence)","county":"Wilson","lat":36.2,"lng":-86.519,"acres":8,"water":80,"permits":90,"popGrowth":92,"zoning":82,"amenity":60,"risk":45,"zone":"Mt Juliet RM","zoneDesc":"Multifamily, 10 DU/acre","maxDensity":10,"usablePct":80,"currentUse":"Vacant commercial"},{"id":21,"name":"Lebanon (S College)","county":"Wilson","lat":36.207,"lng":-86.291,"acres":13,"water":70,"permits":72,"popGrowth":78,"zoning":65,"amenity":78,"risk":30,"zone":"Lebanon RM","zoneDesc":"Multifamily, 8 DU/acre","maxDensity":8,"usablePct":75,"currentUse":"Pasture"},{"id":22,"name":"Watertown","county":"Wilson","lat":36.097,"lng":-86.137,"acres":25,"water":35,"permits":30,"popGrowth":55,"zoning":35,"amenity":90,"risk":15,"zone":"Wilson AG","zoneDesc":"Agricultural, 0.5 DU/acre","maxDensity":0.5,"usablePct":65,"currentUse":"Active farm"},{"id":23,"name":"Hendersonville (Indian Lake)","county":"Sumner","lat":36.305,"lng":-86.62,"acres":4.5,"water":82,"permits":65,"popGrowth":62,"zoning":50,"amenity":35,"risk":55,"zone":"Hendersonville RM-3","zoneDesc":"Multifamily, 6 DU/acre","maxDensity":6,"usablePct":80,"currentUse":"Aging single family"},{"id":24,"name":"Gallatin (Long Hollow)","county":"Sumner","lat":36.388,"lng":-86.451,"acres":15,"water":68,"permits":78,"popGrowth":80,"zoning":70,"amenity":75,"risk":30,"zone":"Gallatin RM","zoneDesc":"Multifamily, 8 DU/acre","maxDensity":8,"usablePct":75,"currentUse":"Wooded"},{"id":25,"name":"Portland","county":"Sumner","lat":36.582,"lng":-86.516,"acres":18,"water":50,"permits":45,"popGrowth":60,"zoning":48,"amenity":82,"risk":20,"zone":"Portland R-1","zoneDesc":"Single Family, 2 DU/acre","maxDensity":2,"usablePct":75,"currentUse":"Pasture"},{"id":26,"name":"Ashland City","county":"Cheatham","lat":36.273,"lng":-87.063,"acres":20,"water":42,"permits":35,"popGrowth":50,"zoning":40,"amenity":75,"risk":25,"zone":"Cheatham R-1","zoneDesc":"Single Family, 1 DU/acre","maxDensity":1,"usablePct":65,"currentUse":"Wooded"},{"id":27,"name":"Pleasant View","county":"Cheatham","lat":36.397,"lng":-87.038,"acres":16,"water":48,"permits":48,"popGrowth":65,"zoning":52,"amenity":80,"risk":20,"zone":"Cheatham R-2","zoneDesc":"Suburban Residential, 2 DU/acre","maxDensity":2,"usablePct":70,"currentUse":"Pasture"},{"id":28,"name":"Dickson","county":"Dickson","lat":36.077,"lng":-87.387,"acres":24,"water":55,"permits":50,"popGrowth":55,"zoning":50,"amenity":78,"risk":15,"zone":"Dickson R-2","zoneDesc":"Suburban Residential, 3 DU/acre","maxDensity":3,"usablePct":70,"currentUse":"Wooded"},{"id":29,"name":"Columbia (Bear Creek)","county":"Maury","lat":35.615,"lng":-87.035,"acres":30,"water":52,"permits":58,"popGrowth":72,"zoning":60,"amenity":80,"risk":25,"zone":"Columbia RM-2","zoneDesc":"Multifamily, 6 DU/acre","maxDensity":6,"usablePct":70,"currentUse":"Pasture"},{"id":30,"name":"Springfield","county":"Robertson","lat":36.51,"lng":-86.884,"acres":22,"water":48,"permits":42,"popGrowth":55,"zoning":45,"amenity":78,"risk":20,"zone":"Springfield R-1","zoneDesc":"Single Family, 2 DU/acre","maxDensity":2,"usablePct":70,"currentUse":"Pasture"}]